id_cidade,nome,nomeabrev,LATITUDE,LONGITUDE
314362,18 de Julio,18 de Julio,-33.6846879641811,-53.5582551100209
302606,Abadia de Goiás,Abadia de Goiás,-16.7620597056575,-49.4383535312845
304944,Abadia dos Dourados,Abadia dos Dourados,-18.4832865306314,-47.3924668770543
302814,Abadiânia,Abadiânia,-16.1974226345936,-48.7060663364738
303004,Abaeté,Abaeté,-19.1521549595111,-45.4557387914446
301936,Abaetetuba,Abaetetuba,-1.72220869031841,-48.8792229935942
314329,Abaí,Abaí,-25.9977060013996,-55.9360020327617
300837,Abaiara,Abaiara,-7.36094559313057,-39.0484972367117
300957,Abaíra,Abaíra,-13.2507240292327,-41.664714498578
301294,Abaré,Abaré,-8.72375444116336,-39.114550441065
303961,Abatiá,Abatiá,-23.3039887877211,-50.3129467863141
305136,Abdon Batista,Abdon Batista,-27.6131046595472,-51.0237175327039
302578,Abel Figueiredo,Abel Figueiredo,-4.95372559357592,-48.3936633018799
305113,Abelardo Luz,Abelardo Luz,-26.5720555207673,-52.3233276861933
302736,Abre Campo,Abre Campo,-20.3001247176332,-42.4746654475353
300471,Abreu e Lima,Abreu e Lima,-7.9038486350909,-34.9072856560448
302241,Abreulândia,Abreulândia,-9.62222144004582,-49.1565051984608
314480,Acahay,Acahay,-25.9079221356308,-57.0859521463887
302832,Acaiaca,Acaiaca,-20.3595105520392,-43.1442333419729
301962,Açailândia,Açailândia,-4.94753606694597,-47.5007558293157
301368,Acajutiba,Acajutiba,-11.6579660215665,-38.0200517567038
301919,Acará,Acará,-1.95969785094893,-48.2001091289499
300739,Acarape,Acarape,-4.22122900168214,-38.7058460245827
300698,Acaraú,Acaraú,-2.88807892501166,-40.1186294815317
300645,Acari,Acari,-6.43533059617012,-36.6408637227863
301063,Acauã,Acauã,-8.21762981115072,-41.0821044675428
300941,Aceguá,Aceguá,-31.8669553771739,-54.16194895634
300926,Acopiara,Acopiara,-6.08952435665867,-39.4483621976998
304649,Acorizal,Acorizal,-15.194456628277,-56.3636624927206
304331,Acrelândia,Acrelândia,-9.8320018485083,-66.9021169346709
304335,Acreúna,Acreúna,-17.396440737756,-50.375310169346
300542,Açu,Açu,-5.57839507571796,-36.9114700438066
303054,Açucena,Açucena,-19.0672713406151,-42.5495174333126
304481,Adamantina,Adamantina,-21.6824744992995,-51.0741174068529
302618,Adelândia,Adelândia,-16.4165376165816,-50.1683156971937
303857,Adolfo,Adolfo,-21.2329588261252,-49.6455401010013
304957,Adrianópolis,Adrianópolis,-24.6610830448721,-48.9925824443693
301301,Adustina,Adustina,-10.5356508283109,-38.115800824655
300788,Afogados da Ingazeira,Afogados da Ingazeira,-7.75122334471007,-37.6366784375935
300520,Afonso Bezerra,Afonso Bezerra,-5.49270220303877,-36.5077677696793
302545,Afonso Cláudio,Afonso Cláudio,-20.0783205721164,-41.1264112271001
301658,Afonso Cunha,Afonso Cunha,-4.1318764933839,-43.3251520643153
301433,Afrânio,Afrânio,-8.51178149585694,-41.0098768568086
304666,Afuá,Afuá,-0.155245669204247,-50.3865187288749
301111,Agrestina,Agrestina,-8.46008428021886,-35.9450215029082
301793,Agricolândia,Agricolândia,-5.7979601641955,-42.6584923893449
304094,Agrolândia,Agrolândia,-27.4091650311854,-49.8224828552869
304085,Agronômica,Agronômica,-27.2666340833602,-49.7084285451547
304153,Água Azul do Norte,Água Azul do Norte,-6.80546296341345,-50.4849653187276
303031,Água Boa,Água Boa,-17.9918415555944,-42.3810037965893
304539,Água Boa,Água Boa,-14.0514544222786,-52.1605440833091
301792,Água Branca,Água Branca,-5.89185874206736,-42.6340734227347
300785,Água Branca,Água Branca,-7.51186123447618,-37.6360111856867
301271,Água Branca,Água Branca,-9.26242692516454,-37.9383001006999
305734,Água Clara,Água Clara,-20.4456995513414,-52.8794197690493
303352,Água Comprida,Água Comprida,-20.0580346564613,-48.107278226726
305099,Água Doce,Água Doce,-26.9989257784656,-51.5532554953038
303204,Água Doce do Maranhão,Água Doce do Maranhão,-2.84086804537513,-42.1192401596128
302492,Água Doce do Norte,Água Doce do Norte,-18.5486934832555,-40.985757960853
301376,Água Fria,Água Fria,-11.8622803119423,-38.7641833881343
302773,Água Fria de Goiás,Água Fria de Goiás,-14.9813908171189,-47.7826704380511
303367,Água Limpa,Água Limpa,-18.0797065547221,-48.7643029798225
300898,Água Nova,Água Nova,-6.20392574492602,-38.2944520764285
301088,Água Preta,Água Preta,-8.70652411440698,-35.5266045850477
305164,Água Santa,Água Santa,-28.1677024186308,-52.0314552846232
303638,Aguaí,Aguaí,-22.057680815457,-46.9738990809651
303240,Aguanil,Aguanil,-20.9444158032991,-45.3918394025827
302553,Águas Belas,Águas Belas,-9.11168527899729,-37.1229246978219
303525,Águas da Prata,Águas da Prata,-21.9324090334596,-46.7180170156419
305312,Águas de Chapecó,Águas de Chapecó,-27.0758933773802,-52.9812967616321
303543,Águas de Lindóia,Águas de Lindóia,-22.4737809638548,-46.6318369509447
303849,Águas de Santa Bárbara,Águas de Santa Bárbara,-22.8816565720494,-49.2425474089624
303921,Águas de São Pedro,Águas de São Pedro,-22.5982222567051,-47.8737996166955
302478,Águas Formosas,Águas Formosas,-17.0806771334014,-40.9386987958132
305296,Águas Frias,Águas Frias,-26.8798464165084,-52.8572242115276
302811,Águas Lindas de Goiás,Águas Lindas de Goiás,-15.7414106119363,-48.2597328672913
304056,Águas Mornas,Águas Mornas,-27.6968087385975,-48.8247752945728
301634,Águas Vermelhas,Águas Vermelhas,-15.7466127600096,-41.4583524747181
314514,Aguaytia,Aguaytia,-9.02797003770695,-75.5206636772697
305695,Agudo,Agudo,-29.64521560973,-53.2519235069806
303843,Agudos,Agudos,-22.4699030565572,-48.9867315222894
304040,Agudos do Sul,Agudos do Sul,-25.9903783472901,-49.3347183067366
302501,Águia Branca,Águia Branca,-18.9850637876229,-40.7440361012184
300984,Aguiar,Aguiar,-7.09221930312825,-38.1683707329146
302002,Aguiarnópolis,Aguiarnópolis,-6.56006888057955,-47.4770945297927
314425,Aija,Aija,-9.77667779270474,-77.6019604603515
302532,Aimorés,Aimorés,-19.5011613163211,-41.0750005911353
301561,Aiquara,Aiquara,-14.1273727125481,-39.8939844736036
301013,Aiuaba,Aiuaba,-6.56929713448187,-40.1217811262583
303172,Aiuruoca,Aiuruoca,-21.974087161452,-44.6045926486353
305433,Ajuricaba,Ajuricaba,-28.2389832033632,-53.7709391515718
303603,Alagoa,Alagoa,-22.1714557473566,-44.6417254369786
300465,Alagoa Grande,Alagoa Grande,-7.04112630243505,-35.6271146717566
300576,Alagoa Nova,Alagoa Nova,-7.06076794477403,-35.7638780989442
301193,Alagoinha,Alagoinha,-8.46693068296497,-36.7790696545099
300463,Alagoinha,Alagoinha,-6.94738927133516,-35.5337874426115
301033,Alagoinha do Piauí,Alagoinha do Piauí,-7.00873299406149,-40.9370443191083
301378,Alagoinhas,Alagoinhas,-12.133972176926,-38.4210902238839
303779,Alambari,Alambari,-23.5508139820416,-47.8983786400374
314388,Alberdi,Alberdi,-26.2052632745444,-58.0838948113487
303540,Albertina,Albertina,-22.2022501472409,-46.6143070667706
301676,Alcântara,Alcântara,-2.40668799090791,-44.4184617773925
301331,Alcântaras,Alcântaras,-3.58378773627356,-40.5435613213101
301324,Alcantil,Alcantil,-7.73710373161752,-36.0513797604058
305733,Alcinópolis,Alcinópolis,-18.3259925734683,-53.7046519943293
302413,Alcobaça,Alcobaça,-17.5199400504087,-39.2039409926974
301802,Aldeias Altas,Aldeias Altas,-4.62661237198208,-43.469277867498
305721,Alecrim,Alecrim,-27.6583204791103,-54.7653149967311
302675,Alegre,Alegre,-20.7585224355889,-41.5385927758916
305827,Alegrete,Alegrete,-29.7890995492115,-55.8024967119993
301466,Alegrete do Piauí,Alegrete do Piauí,-7.24238032173705,-40.8569177879945
305445,Alegria,Alegria,-27.8349341340033,-54.0561944792639
304406,Além Paraíba,Além Paraíba,-21.8801865721303,-42.7179545813594
304159,Alenquer,Alenquer,-1.94660956728115,-54.7387681441888
300933,Alexandria,Alexandria,-6.4057481670574,-38.0145401904918
302813,Alexânia,Alexânia,-16.0838545657334,-48.5080018697418
303232,Alfenas,Alfenas,-21.4261031852373,-45.9481154436652
302521,Alfredo Chaves,Alfredo Chaves,-20.6401095738179,-40.7546387782508
304794,Alfredo Marcondes,Alfredo Marcondes,-21.9531623679929,-51.4143812981415
303118,Alfredo Vasconcelos,Alfredo Vasconcelos,-21.1539991528436,-43.7721396991145
304082,Alfredo Wagner,Alfredo Wagner,-27.7005781848201,-49.3277776998847
300633,Algodão de Jandaíra,Algodão de Jandaíra,-6.89945133121,-36.0112583592308
300676,Alhandra,Alhandra,-7.43019156859035,-34.9059500393309
300481,Aliança,Aliança,-7.60420203228864,-35.2298642876022
302288,Aliança do Tocantins,Aliança do Tocantins,-11.3059940898192,-48.9364846392732
301755,Almadina,Almadina,-14.7093269630765,-39.641821518261
302216,Almas,Almas,-11.5678066577606,-47.1662067150815
304974,Almeirim,Almeirim,-1.52134687877095,-52.5819743545885
301614,Almenara,Almenara,-16.1789224186611,-40.6945034481121
300755,Almino Afonso,Almino Afonso,-6.14790770421599,-37.7638822357283
304031,Almirante Tamandaré,Almirante Tamandaré,-25.3192958221269,-49.3041557330062
300397,Almirante Tamandaré do Sul,Almirante Tamandaré do Sul,-28.1154133820369,-52.9146657580651
303381,Aloândia,Aloândia,-17.7289354312461,-49.4812745320058
302725,Alpercata,Alpercata,-18.9744674221446,-41.9703529091136
305314,Alpestre,Alpestre,-27.2506285186677,-53.0345807964837
303323,Alpinópolis,Alpinópolis,-20.8635302699894,-46.3881869466653
304553,Alta Floresta,Alta Floresta,-9.86715894396188,-56.0871301840279
304303,Alta Floresta D'Oeste,Alta Floresta D'Oeste,-11.9287371157072,-61.9957996858737
303702,Altair,Altair,-20.5239924341028,-49.0589496927036
304146,Altamira,Altamira,-3.20445265617442,-52.2103607622291
303588,Altamira do Maranhão,Altamira do Maranhão,-4.16637574431495,-45.470975673787
305052,Altamira do Paraná,Altamira do Paraná,-24.7987586866873,-52.7132715094504
300834,Altaneira,Altaneira,-6.99878701410793,-39.7359223563907
303496,Alterosa,Alterosa,-21.2492251475647,-46.1390552716031
301113,Altinho,Altinho,-8.48779323511724,-36.0595487596824
303653,Altinópolis,Altinópolis,-21.0218335310069,-47.3715969099588
305397,Alto Alegre,Alto Alegre,-28.7773372218101,-52.9897149603145
305887,Alto Alegre,Alto Alegre,2.98822248071995,-61.3076124536499
303881,Alto Alegre,Alto Alegre,-21.5809912277361,-50.1639476631884
301857,Alto Alegre do Maranhão,Alto Alegre do Maranhão,-4.21339659514419,-44.4463530340397
303194,Alto Alegre do Pindaré,Alto Alegre do Pindaré,-3.6672787144623,-45.8424728277649
304291,Alto Alegre dos Parecis,Alto Alegre dos Parecis,-12.1405299549367,-61.8379130425655
304788,Alto Araguaia,Alto Araguaia,-17.3157685640839,-53.2185488118949
305585,Alto Bela Vista,Alto Bela Vista,-27.433819497714,-51.9048824608101
304193,Alto Boa Vista,Alto Boa Vista,-11.6721479709186,-51.3775905074446
302673,Alto Caparaó,Alto Caparaó,-20.4314594657946,-41.8741294433337
300539,Alto do Rodrigues,Alto do Rodrigues,-5.29305504595509,-36.7616432545654
305483,Alto Feliz,Alto Feliz,-29.3801938898419,-51.3135268226235
305731,Alto Garças,Alto Garças,-16.9466687558885,-53.5276337392421
302797,Alto Horizonte,Alto Horizonte,-14.1985022633077,-49.3368051430422
303569,Alto Jequitibá,Alto Jequitibá,-20.4213242346512,-41.9673460914881
301783,Alto Longá,Alto Longá,-5.25674475630844,-42.2099207734935
304236,Alto Paraguai,Alto Paraguai,-14.5141413187693,-56.4780657282982
304323,Alto Paraíso,Alto Paraíso,-9.7146984262095,-63.3192938795889
302301,Alto Paraíso de Goiás,Alto Paraíso de Goiás,-14.1399658103036,-47.5176890890643
304807,Alto Paraná,Alto Paraná,-23.1317099800318,-52.3193274728445
302073,Alto Parnaíba,Alto Parnaíba,-9.1102738066521,-45.9335956237033
305042,Alto Piquiri,Alto Piquiri,-24.0228888711461,-53.440489185035
303094,Alto Rio Doce,Alto Rio Doce,-21.0286004937543,-43.4070528135503
302525,Alto Rio Novo,Alto Rio Novo,-19.0622725923022,-41.0212572722221
300975,Alto Santo,Alto Santo,-5.5093484054117,-38.2746295495732
304789,Alto Taquari,Alto Taquari,-17.8302049926455,-53.2824238434867
305761,Altônia,Altônia,-23.8763762316302,-53.8962553840624
301777,Altos,Altos,-5.03928132789988,-42.461500353493
303761,Alumínio,Alumínio,-23.5310306014431,-47.2549742694452
304253,Alvarães,Alvarães,-3.22765240486355,-64.8011142102644
302543,Alvarenga,Alvarenga,-19.4178786995064,-41.7320941534369
303437,Álvares Florence,Álvares Florence,-20.3209929817897,-49.910948477825
304686,Álvares Machado,Álvares Machado,-22.0768775497022,-51.4726660253419
303892,Álvaro de Carvalho,Álvaro de Carvalho,-22.0789788481974,-49.7206862571983
314521,Alvear,Alvear,-29.1020261295296,-56.5659819962165
303895,Alvinlândia,Alvinlândia,-22.4439489916538,-49.7627394286084
302829,Alvinópolis,Alvinópolis,-20.1102467868984,-43.0538521203086
302296,Alvorada,Alvorada,-12.4788989333766,-49.1253164591905
305498,Alvorada,Alvorada,-29.9918806775567,-51.0813100803417
302719,Alvorada de Minas,Alvorada de Minas,-18.7338317522348,-43.3641712277257
302060,Alvorada do Gurguéia,Alvorada do Gurguéia,-8.42460359075519,-43.7773675393052
302868,Alvorada do Norte,Alvorada do Norte,-14.484441409471,-46.4943343918795
305740,Alvorada do Sul,Alvorada do Sul,-22.7817470536758,-51.2301356820857
304298,Alvorada D'Oeste,Alvorada D'Oeste,-11.3466810567815,-62.2851550086723
305886,Amajari,Amajari,3.65308458338307,-61.4185460928634
305238,Amambaí,Amambaí,-23.1062147597227,-55.2257784691637
305895,Amapá,Amapá,2.05230998800846,-50.7960443499428
301808,Amapá do Maranhão,Amapá do Maranhão,-1.6756217732881,-46.0028038092826
304869,Amaporã,Amaporã,-23.0947335989968,-52.7870341785166
301354,Amaraji,Amaraji,-8.37734114061484,-35.4503437656021
305544,Amaral Ferrador,Amaral Ferrador,-30.8760568637113,-52.2514159034985
302796,Amaralina,Amaralina,-13.9279024281687,-49.2982991377286
301799,Amarante,Amarante,-6.24487015423767,-42.8507614131089
301954,Amarante do Maranhão,Amarante do Maranhão,-5.56953288604484,-46.7476525116667
301727,Amargosa,Amargosa,-13.03188516647,-39.5972340373439
305846,Amaturá,Amaturá,-3.36320545115949,-68.1995121318047
314377,Ambo,Ambo,-10.1302712156367,-76.1926668859282
301389,Amélia Rodrigues,Amélia Rodrigues,-12.3975779858479,-38.7535251632136
301493,América Dourada,América Dourada,-11.443377016395,-41.4393458375244
304584,Americana,Americana,-22.7378350369387,-47.3335204304511
302612,Americano do Brasil,Americano do Brasil,-16.2530447160699,-49.979851176814
303683,Américo Brasiliense,Américo Brasiliense,-21.7292410112958,-48.115073721738
303421,Américo de Campos,Américo de Campos,-20.2989929612895,-49.731948752595
305381,Ametista do Sul,Ametista do Sul,-27.3611252294776,-53.1834601657864
300690,Amontada,Amontada,-3.36323623926553,-39.829587600706
304516,Amorinópolis,Amorinópolis,-16.6199945953552,-51.0947531124478
300666,Amparo,Amparo,-7.56736798890499,-37.0630179619889
303645,Amparo,Amparo,-22.7092663513594,-46.7724195756686
302362,Amparo de São Francisco,Amparo de São Francisco,-10.1352784736012,-36.9352982414862
302754,Amparo do Serra,Amparo do Serra,-20.5055458279092,-42.801232255261
305267,Ampére,Ampére,-25.9172566733738,-53.469091212326
301159,Anadia,Anadia,-9.68532038968278,-36.308083202869
301587,Anagé,Anagé,-14.6142574009966,-41.1390156872416
305063,Anahy,Anahy,-24.6453291141748,-53.1336795156811
301940,Anajás,Anajás,-0.997187441011456,-49.935786150743
301703,Anajatuba,Anajatuba,-3.26493547712899,-44.6166826368977
304576,Analândia,Analândia,-22.1293893572763,-47.6623408676014
304640,Anamã,Anamã,-3.56735124017846,-61.3967831046177
302007,Ananás,Ananás,-6.36477520211302,-48.0738432669293
301932,Ananindeua,Ananindeua,-1.36429274124725,-48.3746748896064
302402,Anápolis,Anápolis,-16.3285446693033,-48.9533541441388
304143,Anapu,Anapu,-3.47023642591498,-51.2006581431804
301656,Anapurus,Anapurus,-3.67435130327099,-43.1093417035069
305600,Anastácio,Anastácio,-20.4827392585654,-55.8107995629311
304842,Anaurilândia,Anaurilândia,-22.1856285485196,-52.7194899078491
302522,Anchieta,Anchieta,-20.7959823305262,-40.6428945112396
305302,Anchieta,Anchieta,-26.5386832729309,-53.3323607836951
301574,Andaraí,Andaraí,-12.7952418384008,-41.3286466557099
304654,Andirá,Andirá,-23.053735440356,-50.2307802621885
301483,Andorinha,Andorinha,-10.343582031004,-39.8337778770155
303539,Andradas,Andradas,-22.0699618247588,-46.5727664177811
304395,Andradina,Andradina,-20.895220516314,-51.3789900298804
305529,André da Rocha,André da Rocha,-28.6287707177377,-51.5801793399518
305000,Andrelândia,Andrelândia,-21.7415670312563,-44.3120679905947
304657,Angatuba,Angatuba,-23.492207459788,-48.4142828771202
302656,Angelândia,Angelândia,-17.7259949209424,-42.2729634256082
305752,Angélica,Angélica,-22.1531146490964,-53.7712290203194
301119,Angelim,Angelim,-8.88820995224805,-36.2880345599454
304057,Angelina,Angelina,-27.5708929611905,-48.9882959092581
302086,Angical,Angical,-12.009119566277,-44.7001424685214
301798,Angical do Piauí,Angical do Piauí,-6.0882723262449,-42.7403898316718
302005,Angico,Angico,-6.39219549941265,-47.8615179837365
300522,Angicos,Angicos,-5.65832922103355,-36.6097335985163
303602,Angra dos Reis,Angra dos Reis,-23.0015572889087,-44.3199414633057
301416,Anguera,Anguera,-12.151901151266,-39.2440561562938
304781,Ângulo,Ângulo,-23.1950732456898,-51.9157882150791
303303,Anhanguera,Anhanguera,-18.336995430143,-48.2189516302794
303925,Anhembi,Anhembi,-22.7889888238244,-48.1269503447265
304688,Anhumas,Anhumas,-22.2950084072499,-51.3869384266698
302616,Anicuns,Anicuns,-16.4589551551462,-49.9588554595484
302057,Anísio de Abreu,Anísio de Abreu,-9.18606835758814,-43.0497573951846
305138,Anita Garibaldi,Anita Garibaldi,-27.69021947665,-51.1275865156918
304062,Anitápolis,Anitápolis,-27.9016662190312,-49.1320641775432
304642,Anori,Anori,-3.74641282736121,-61.6579325060107
305215,Anta Gorda,Anta Gorda,-28.9702478528861,-52.0106455881783
301291,Antas,Antas,-10.4131573925542,-38.3323451954006
303981,Antonina,Antonina,-25.4390757914911,-48.7195322811644
301011,Antonina do Norte,Antonina do Norte,-6.77474466165568,-39.9871049120925
301868,Antônio Almeida,Antônio Almeida,-7.21945431251491,-44.1935184704687
301418,Antônio Cardoso,Antônio Cardoso,-12.433939970667,-39.1178786253929
303122,Antônio Carlos,Antônio Carlos,-21.3215098171503,-43.7455029327606
304051,Antônio Carlos,Antônio Carlos,-27.5195535326646,-48.7664342110982
303560,Antônio Dias,Antônio Dias,-19.6537582062981,-42.8783206752247
301440,Antônio Gonçalves,Antônio Gonçalves,-10.5721559655428,-40.2758269885868
305232,Antônio João,Antônio João,-22.1909923540369,-55.9479388606198
300761,Antônio Martins,Antônio Martins,-6.21407804927948,-37.8836721361875
304603,Antônio Olinto,Antônio Olinto,-25.9808557720361,-50.1976139245315
305152,Antônio Prado,Antônio Prado,-28.8570220843345,-51.2887124265049
303252,Antônio Prado de Minas,Antônio Prado de Minas,-21.0196642422568,-42.111297539805
300939,Aparecida,Aparecida,-6.78507247466751,-38.0805699008171
303458,Aparecida,Aparecida,-22.8499895834328,-45.232883430032
303357,Aparecida de Goiânia,Aparecida de Goiânia,-16.8202549329964,-49.2472549834089
304342,Aparecida do Rio Doce,Aparecida do Rio Doce,-18.2945227721673,-51.1520200484884
302207,Aparecida do Rio Negro,Aparecida do Rio Negro,-9.95282780605538,-47.9720369417333
304386,Aparecida do Taboado,Aparecida do Taboado,-20.0877328348498,-51.0965531072236
304391,Aparecida d'Oeste,Aparecida d'Oeste,-20.4491934215913,-50.8839237729957
304919,Aperibé,Aperibé,-21.6257145426546,-42.1020229556132
302637,Apiacá,Apiacá,-21.1527548961408,-41.569653935224
304565,Apiacás,Apiacás,-9.54022001552382,-57.4591097654743
304951,Apiaí,Apiaí,-24.511295065458,-48.8446879737306
301667,Apicum-Açu,Apicum-Açu,-1.45900185102506,-45.0868061383717
304215,Apiúna,Apiúna,-27.0379735696148,-49.3889355443153
300745,Apodi,Apodi,-5.65389757206364,-37.7949011861614
301369,Aporá,Aporá,-11.6607498072277,-38.080629446502
304450,Aporé,Aporé,-18.9649955296266,-51.9259459563908
314369,Apóstoles,Apóstoles,-27.9072075172484,-55.7441788389376
302382,Apuarema,Apuarema,-13.8558500090121,-39.7447260906286
304760,Apucarana,Apucarana,-23.5504273707918,-51.4639165785689
304247,Apuí,Apuí,-7.19839167073451,-59.8852459492647
300692,Apuiarés,Apuiarés,-3.94545394545171,-39.4362490693647
302373,Aquidabã,Aquidabã,-10.2784802318355,-37.0150739644146
305599,Aquidauana,Aquidauana,-20.466999281319,-55.7872343878381
302345,Aquiraz,Aquiraz,-3.89969004622371,-38.3898746558988
305122,Arabutã,Arabutã,-27.1591632196061,-52.1427108629987
300449,Araçagi,Araçagi,-6.85214036311278,-35.3793286823503
303059,Araçaí,Araçaí,-19.1959768143617,-44.2496803793374
295769,Aracaju,Aracaju,-10.9100146308586,-37.0682739638577
303744,Araçariguama,Araçariguama,-23.4370748250695,-47.0612266770395
301372,Araças,Araças,-12.2143908436184,-38.2019574049072
300730,Aracati,Aracati,-4.55866056940189,-37.7682014719578
301591,Aracatu,Aracatu,-14.4284399661015,-41.4651260723897
304457,Araçatuba,Araçatuba,-21.2081107369138,-50.4405231203453
301393,Araci,Araci,-11.3333348520432,-38.959916989218
303095,Aracitaba,Aracitaba,-21.3450987239253,-43.37399036733
300905,Aracoiaba,Aracoiaba,-4.36911990609669,-38.8128268432627
300469,Araçoiaba,Araçoiaba,-7.78330756344155,-35.0831066548971
303767,Araçoiaba da Serra,Araçoiaba da Serra,-23.5033775806281,-47.6170106159954
302888,Aracruz,Aracruz,-19.8205251799875,-40.276785448722
302608,Araçu,Araçu,-16.356754399795,-49.6808247066105
302650,Araçuaí,Araçuaí,-16.8527842017193,-42.0640513712789
304523,Aragarças,Aragarças,-15.9032869449994,-52.2450470949877
303375,Aragoiânia,Aragoiânia,-16.9091498655693,-49.4480494164107
302025,Aragominas,Aragominas,-7.16744897259966,-48.5273905968066
302248,Araguacema,Araguacema,-8.80796395303631,-49.5572744115704
302794,Araguaçu,Araguaçu,-12.9272516040944,-49.8314177381261
304518,Araguaiana,Araguaiana,-15.7240583005912,-51.83777505704
302011,Araguaína,Araguaína,-7.19278533563037,-48.2047807136734
304786,Araguainha,Araguainha,-16.8569429560479,-53.0316524339071
302023,Araguanã,Araguanã,-6.57990443242722,-48.6427083433806
303035,Araguanã,Araguanã,-2.9506957753987,-45.6654735443556
304542,Araguapaz,Araguapaz,-15.0912949547754,-50.6319149954023
303307,Araguari,Araguari,-18.6460346260208,-48.1937883613725
301985,Araguatins,Araguatins,-5.64699342325082,-48.1235750774212
300844,Araioses,Araioses,-2.89130342450616,-41.9053287297232
305233,Aral Moreira,Aral Moreira,-22.9427001257579,-55.6322318424384
301379,Aramari,Aramari,-12.0888448448781,-38.4972557230529
305520,Arambaré,Arambaré,-30.9097285781667,-51.5050461639665
301860,Arame,Arame,-4.88823666385522,-46.0086647208599
303348,Aramina,Aramina,-20.08861747931,-47.7876482281218
303948,Arandu,Arandu,-23.133988616124,-49.0539487749963
304999,Arantina,Arantina,-21.9106507477386,-44.2558970412246
303601,Arapeí,Arapeí,-22.6722258974704,-44.4445084229372
301347,Arapiraca,Arapiraca,-9.75530049258781,-36.6617738771178
302032,Arapoema,Arapoema,-7.65504589817549,-49.0640863316749
302748,Araponga,Araponga,-20.6690870465833,-42.5182126244505
304759,Arapongas,Arapongas,-23.4157621397669,-51.4263499086813
303371,Araporã,Araporã,-18.4361837996139,-49.1851481635264
303972,Arapoti,Arapoti,-24.1411889594876,-49.8239564613618
303308,Arapuá,Arapuá,-19.0349532152013,-46.1549117970174
304826,Arapuã,Arapuã,-24.3136482968029,-51.7860721208425
304683,Araputanga,Araputanga,-15.4645244938914,-58.3429082220755
303998,Araquari,Araquari,-26.3758890698318,-48.7192476042558
300574,Arara,Arara,-6.82854343730728,-35.7555042870507
304114,Araranguá,Araranguá,-28.9360991441822,-49.4922468334566
303685,Araraquara,Araraquara,-21.7849810287852,-48.1784182921458
303688,Araras,Araras,-22.3577117469763,-47.384635673343
300877,Ararendá,Ararendá,-4.74606836770746,-40.8313191117077
301705,Arari,Arari,-3.45540898572398,-44.7770622125314
305469,Araricá,Araricá,-29.6173125855784,-50.9295783934831
301017,Araripe,Araripe,-7.2136116715655,-40.1362197565381
301027,Araripina,Araripina,-7.57084262215156,-40.496036047197
303071,Araruama,Araruama,-22.8701380458715,-42.3329918520826
300564,Araruna,Araruna,-6.53460682493108,-35.7409187899627
305032,Araruna,Araruna,-23.9319643639366,-52.5025392254748
301760,Arataca,Arataca,-15.2655600223416,-39.4193467607972
305156,Aratiba,Aratiba,-27.3982591671654,-52.2979108006755
300910,Aratuba,Aratuba,-4.41269108499237,-39.0474335205077
301528,Aratuípe,Aratuípe,-13.0773183649432,-39.0018711564383
301265,Arauá,Arauá,-11.2651929930576,-37.6179103686874
304034,Araucária,Araucária,-25.5864161799657,-49.4051723318177
303019,Araújos,Araújos,-19.9451399166583,-45.1676025925318
303318,Araxá,Araxá,-19.584999532416,-46.9415832663041
303519,Arceburgo,Arceburgo,-21.3594556464596,-46.9404509471626
304467,Arco-Íris,Arco-Íris,-21.7732612973791,-50.4664368960295
303024,Arcos,Arcos,-20.2868041570305,-45.5377277522917
301196,Arcoverde,Arcoverde,-8.4156181560769,-37.0580526559487
303497,Areado,Areado,-21.3576595044494,-46.1424605803559
303132,Areal,Areal,-22.2287917368672,-43.1121550964186
303841,Arealva,Arealva,-22.028267477144,-48.9116744803021
300575,Areia,Areia,-6.96537330993322,-35.7026063151156
301250,Areia Branca,Areia Branca,-10.7602072352903,-37.3114458453894
300531,Areia Branca,Areia Branca,-4.95294140929973,-37.125529008623
300771,Areia de Baraúnas,Areia de Baraúnas,-7.12378980466484,-36.9449888560846
300579,Areial,Areial,-7.04990091379834,-35.9251273595157
303614,Areias,Areias,-22.5790779794169,-44.6996229545188
303838,Areiópolis,Areiópolis,-22.6679891709775,-48.6649495523804
304447,Arenápolis,Arenápolis,-14.4627670415465,-56.8417182046679
304519,Arenópolis,Arenópolis,-16.3860539952155,-51.5597274816971
302319,Arês,Arês,-6.19698103691664,-35.1628474440011
304408,Argirita,Argirita,-21.6087518855383,-42.8295291524056
302684,Aricanduva,Aricanduva,-17.8669947678166,-42.556962525796
302588,Arinos,Arinos,-15.9108947288661,-46.1081047377586
304271,Aripuanã,Aripuanã,-10.1726726099153,-59.4572583510876
304322,Ariquemes,Ariquemes,-9.90611592559483,-63.0329750883454
303820,Ariranha,Ariranha,-21.1876266968239,-48.7908246118695
304823,Ariranha do Ivaí,Ariranha do Ivaí,-24.3861760442076,-51.5843691152379
302649,Armação dos Búzios,Armação dos Búzios,-22.753333774906,-41.884922130447
304065,Armazém,Armazém,-28.2452962798294,-49.0219378056885
301012,Arneiroz,Arneiroz,-6.31691030063173,-40.1656103612904
301009,Aroazes,Aroazes,-6.11063006065866,-41.782516373102
300657,Aroeiras,Aroeiras,-7.54515276662734,-35.7068430795619
300952,Aroeiras do Itaim,Aroeiras do Itaim,-7.27732177249268,-41.5652038034565
301822,Arraial,Arraial,-6.65175666584507,-42.5348803241538
303067,Arraial do Cabo,Arraial do Cabo,-22.9779366091361,-42.0270799079138
303050,Arraias,Arraias,-12.922762138889,-46.9484572080189
305785,Arroio do Meio,Arroio do Meio,-29.4009807933712,-51.9449413302451
300395,Arroio do Padre,Arroio do Padre,-31.442638691862,-52.4221773540585
304133,Arroio do Sal,Arroio do Sal,-29.5443559576982,-49.8899801253373
305407,Arroio do Tigre,Arroio do Tigre,-29.333600269839,-53.0863637863356
305783,Arroio dos Ratos,Arroio dos Ratos,-30.0880235883548,-51.7279367721944
305841,Arroio Grande,Arroio Grande,-32.2331334239961,-53.0866321509527
305078,Arroio Trinta,Arroio Trinta,-26.9261292992795,-51.3411608571145
314300,Artigas,Artigas,-30.3977318348143,-56.4700106851464
303711,Artur Nogueira,Artur Nogueira,-22.5732119353054,-47.1730788786334
304545,Aruanã,Aruanã,-14.9262722570593,-51.0808179104657
303931,Arujá,Arujá,-23.39695559728,-46.3203795182696
305290,Arvoredo,Arvoredo,-27.0752870656101,-52.4547094862711
305224,Arvorezinha,Arvorezinha,-28.8741651279048,-52.1785352448453
304214,Ascurra,Ascurra,-26.9553014185406,-49.378709162301
304369,Aspásia,Aspásia,-20.1589934589913,-50.7269473183012
304728,Assaí,Assaí,-23.3701466121251,-50.8463511432526
301014,Assaré,Assaré,-6.87131131463333,-39.8710967661997
304496,Assis,Assis,-22.6604238821316,-50.4187282379383
305865,Assis Brasil,Assis Brasil,-10.9393817941397,-69.5658333736338
305003,Assis Chateaubriand,Assis Chateaubriand,-24.417288483283,-53.5217730405793
300767,Assunção,Assunção,-7.0750102644196,-36.7313680949462
301004,Assunção do Piauí,Assunção do Piauí,-5.86540405608858,-41.0391821374891
303264,Astolfo Dutra,Astolfo Dutra,-21.318919760031,-42.8575706275031
304763,Astorga,Astorga,-23.2322920202188,-51.6672078069969
295791,Asunción,Asunción,-25.2709025610032,-57.6709457014283
301149,Atalaia,Atalaia,-9.51233161512697,-36.0088498335736
304782,Atalaia,Atalaia,-23.1521847559528,-52.0555289321946
305838,Atalaia do Norte,Atalaia do Norte,-4.3678484302319,-70.1910771857587
304087,Atalanta,Atalanta,-27.4223961933087,-49.77929662072
314475,Atalaya,Atalaya,-10.728292631444,-73.7800917913852
302490,Ataléia,Ataléia,-18.0442760769435,-41.1152478899952
303937,Atibaia,Atibaia,-23.117537147628,-46.5566593033188
302620,Atilio Vivacqua,Atilio Vivacqua,-20.9134567437118,-41.1989296647525
301979,Augustinópolis,Augustinópolis,-5.46903063400587,-47.8866415133766
301879,Augusto Corrêa,Augusto Corrêa,-1.02201048236465,-46.6459168211591
302950,Augusto de Lima,Augusto de Lima,-18.1001794678318,-44.2658921153974
305456,Augusto Pestana,Augusto Pestana,-28.5177174136694,-53.9887570130416
300553,Augusto Severo,Augusto Severo,-5.85401010181447,-37.3108768002754
305155,Áurea,Áurea,-27.6940595072962,-52.0509554451498
302387,Aurelino Leal,Aurelino Leal,-14.3181100701856,-39.3226656995589
304379,Auriflama,Auriflama,-20.6859926442945,-50.55494739404
304977,Aurilândia,Aurilândia,-16.6777080447338,-50.4645291581841
300833,Aurora,Aurora,-6.93390279930235,-38.9745383809468
304083,Aurora,Aurora,-27.3102664189614,-49.6299571932228
302140,Aurora do Pará,Aurora do Pará,-2.13344877832236,-47.5603154674013
302862,Aurora do Tocantins,Aurora do Tocantins,-12.7108888358828,-46.40797775862
304631,Autazes,Autazes,-3.58612941060201,-59.1260247187169
303885,Avaí,Avaí,-22.1571067044353,-49.3310097380906
303872,Avanhandava,Avanhandava,-21.4588806812775,-49.951307760621
303947,Avaré,Avaré,-23.1072040342811,-48.9254650402752
304166,Aveiro,Aveiro,-3.60880329568315,-55.3203567818931
302064,Avelino Lopes,Avelino Lopes,-10.1346703656618,-43.9495552028658
302609,Avelinópolis,Avelinópolis,-16.467689658389,-49.7582674099056
301678,Axixá,Axixá,-2.83664858263034,-44.0564363070387
301980,Axixá do Tocantins,Axixá do Tocantins,-5.61799814849668,-47.7720765536501
314412,Ayolas,Ayolas,-27.3928431554515,-56.8134897596571
302010,Babaçulândia,Babaçulândia,-7.20478244245931,-47.7614009560204
302434,Bacabal,Bacabal,-4.22486339701429,-44.7835382778307
301682,Bacabeira,Bacabeira,-2.97650205818859,-44.3142484355701
301668,Bacuri,Bacuri,-1.72573302185709,-45.1399687861143
301690,Bacurituba,Bacurituba,-2.70777128666702,-44.7379843877279
303428,Bady Bassitt,Bady Bassitt,-20.9179919719553,-49.4449489778207
303177,Baependi,Baependi,-21.957472446637,-44.887808575362
305811,Bagé,Bagé,-31.3309791692836,-54.1069366534423
301945,Bagre,Bagre,-1.90094640266489,-50.1990778466182
302334,Baía da Traição,Baía da Traição,-6.69041226516912,-34.9335254539536
302332,Baía Formosa,Baía Formosa,-6.37118182088168,-35.007145586151
302085,Baianópolis,Baianópolis,-12.3075693849217,-44.5386495222968
301948,Baião,Baião,-2.79059839794654,-49.669827980168
301458,Baixa Grande,Baixa Grande,-11.9561079618076,-40.1686932274795
301877,Baixa Grande do Ribeiro,Baixa Grande do Ribeiro,-7.85988064754763,-45.2098297303288
301001,Baixio,Baixio,-6.7202551606691,-38.7140362657607
302531,Baixo Guandu,Baixo Guandu,-19.5217605244672,-41.0112621728055
300414,Balbinos,Balbinos,-21.8999905115837,-49.3569487692307
302817,Baldim,Baldim,-19.2879929655999,-43.9569579017032
304532,Baliza,Baliza,-16.1975470239319,-52.5443854142487
304115,Balneário Arroio do Silva,Balneário Arroio do Silva,-28.981128451863,-49.4241265616658
303996,Balneário Barra do Sul,Balneário Barra do Sul,-26.4601895835635,-48.6127391958745
304004,Balneário Camboriú,Balneário Camboriú,-26.9930767528523,-48.6355763213707
304119,Balneário Gaivota,Balneário Gaivota,-29.1532042533566,-49.5845313759216
304001,Balneário Piçarras,Balneário Piçarras,-26.7697861166688,-48.6767137656465
304665,Balneário Pinhal,Balneário Pinhal,-30.2424219914971,-50.2341035552603
300358,Balneário Rincão,Balneário Rincão,-28.80491106861,-49.2411193685469
304037,Balsa Nova,Balsa Nova,-25.5808465148697,-49.6295047839139
303431,Bálsamo,Bálsamo,-20.7349922815613,-49.5839488294521
301878,Balsas,Balsas,-7.53255388811431,-46.0375284586723
303244,Bambuí,Bambuí,-20.0170872396094,-45.9757550535475
300916,Banabuiú,Banabuiú,-5.30494978916299,-38.9134909892239
303600,Bananal,Bananal,-22.6824142075501,-44.3284946346993
300442,Bananeiras,Bananeiras,-6.74435037205061,-35.6308946637489
301613,Bandeira,Bandeira,-15.8838883445197,-40.561120834853
303508,Bandeira do Sul,Bandeira do Sul,-21.7312721780435,-46.3837392121839
305352,Bandeirante,Bandeirante,-26.7709657052631,-53.6417815863074
304717,Bandeirantes,Bandeirantes,-23.1082562118691,-50.3708293191792
305737,Bandeirantes,Bandeirantes,-19.9213521144064,-54.3639943550717
302030,Bandeirantes do Tocantins,Bandeirantes do Tocantins,-7.76043562381594,-48.5774598049979
304156,Bannach,Bannach,-7.35169159958436,-50.4076874549964
301313,Banzaê,Banzaê,-10.5830476286863,-38.6130848142082
305506,Barão,Barão,-29.3763636337249,-51.4993344011283
304209,Barão de Antonina,Barão de Antonina,-23.628890767608,-49.5637848045432
303057,Barão de Cocais,Barão de Cocais,-19.9394172575637,-43.4758916948312
305160,Barão de Cotegipe,Barão de Cotegipe,-27.6212573057199,-52.3802712271869
301838,Barão de Grajaú,Barão de Grajaú,-6.7564405579104,-43.0269046255518
304653,Barão de Melgaço,Barão de Melgaço,-16.197084155657,-55.9665546606684
304917,Barão de Monte Alto,Barão de Monte Alto,-21.2448848252954,-42.237546995769
305784,Barão do Triunfo,Barão do Triunfo,-30.3895509998345,-51.7389002434327
300537,Baraúna,Baraúna,-5.07017493884992,-37.6132175864734
300640,Baraúna,Baraúna,-6.64252722101357,-36.2550206343579
303119,Barbacena,Barbacena,-21.2219244020677,-43.7706388588634
301178,Barbalha,Barbalha,-7.30084299281051,-39.3087775034443
303871,Barbosa,Barbosa,-21.2661251105253,-49.9522302241928
304816,Barbosa Ferraz,Barbosa Ferraz,-24.0338480193643,-52.004398520502
301933,Barcarena,Barcarena,-1.51225154754032,-48.6199073954433
300514,Barcelona,Barcelona,-5.95059494476403,-35.9279939531712
304249,Barcelos,Barcelos,-0.983747715978811,-62.9315049291535
304595,Bariri,Bariri,-22.0734245039261,-48.7442367958674
302276,Barra,Barra,-11.0863351944781,-43.1462630999677
304598,Barra Bonita,Barra Bonita,-22.4913302077818,-48.5587578042053
305305,Barra Bonita,Barra Bonita,-26.6544667439697,-53.4404535322756
301578,Barra da Estiva,Barra da Estiva,-13.6273142795702,-41.3305825540458
302573,Barra D'Alcântara,Barra D'Alcântara,-6.51935518827515,-42.1067464785208
301103,Barra de Guabiraba,Barra de Guabiraba,-8.42117825633661,-35.6588383499622
300573,Barra de Santa Rosa,Barra de Santa Rosa,-6.71858031205862,-36.067365214308
301321,Barra de Santana,Barra de Santana,-7.51782834305666,-35.9958194186223
301100,Barra de Santo Antônio,Barra de Santo Antônio,-9.40273037474103,-35.510377029228
302494,Barra de São Francisco,Barra de São Francisco,-18.7553145283396,-40.8968027372918
301148,Barra de São Miguel,Barra de São Miguel,-9.83885533063216,-35.9059643249631
300594,Barra de São Miguel,Barra de São Miguel,-7.75270874322363,-36.3166435226431
304621,Barra do Bugres,Barra do Bugres,-15.0705896570252,-57.1882245315294
304954,Barra do Chapéu,Barra do Chapéu,-24.4726784683111,-49.0242020269785
301604,Barra do Choça,Barra do Choça,-14.8658803718628,-40.5793954817461
301861,Barra do Corda,Barra do Corda,-5.49722640686729,-45.2488549498753
304522,Barra do Garças,Barra do Garças,-15.8895322013136,-52.2719585654444
305358,Barra do Guarita,Barra do Guarita,-27.1931392169384,-53.7113247129203
303959,Barra do Jacaré,Barra do Jacaré,-23.1165097316362,-50.1845831646419
300409,Barra do Mendes,Barra do Mendes,-11.8104402413388,-42.0593427423293
302575,Barra do Ouro,Barra do Ouro,-7.69634232896145,-47.6779849018745
303152,Barra do Piraí,Barra do Piraí,-22.4720136756043,-43.827294517716
305830,Barra do Quaraí,Barra do Quaraí,-30.2033166017956,-57.5502159628358
305502,Barra do Ribeiro,Barra do Ribeiro,-30.294364386609,-51.3018139247117
305158,Barra do Rio Azul,Barra do Rio Azul,-27.4073268258037,-52.4088255343703
301744,Barra do Rocha,Barra do Rocha,-14.2096640670748,-39.6001764396647
304948,Barra do Turvo,Barra do Turvo,-24.7559860674363,-48.5049489867207
301242,Barra dos Coqueiros,Barra dos Coqueiros,-10.9000637953605,-37.0326237107357
305686,Barra Funda,Barra Funda,-27.9209376626341,-53.0395235948061
302831,Barra Longa,Barra Longa,-20.287342493827,-43.0405334390619
303189,Barra Mansa,Barra Mansa,-22.5485661191119,-44.1756201894298
303999,Barra Velha,Barra Velha,-26.6374427588774,-48.6937613908919
305344,Barracão,Barracão,-26.2506957888442,-53.6328384844037
305580,Barracão,Barracão,-27.6743373829659,-51.4589955870792
301773,Barras,Barras,-4.24507263585275,-42.2924998365349
300738,Barreira,Barreira,-4.28960546668345,-38.6432236079927
302089,Barreiras,Barreiras,-12.1443021225603,-44.9972017833058
302077,Barreiras do Piauí,Barreiras do Piauí,-9.92394093680986,-45.4734529178099
304172,Barreirinha,Barreirinha,-2.7992468720519,-57.0683223838034
303208,Barreirinhas,Barreirinhas,-2.75249723709654,-42.827831084764
301083,Barreiros,Barreiros,-8.81648205638945,-35.1834691091301
303627,Barretos,Barretos,-20.5536112172559,-48.5702354927466
303675,Barrinha,Barrinha,-21.1939911868555,-48.1639508413776
300809,Barro,Barro,-7.17696734728273,-38.7794287205085
301507,Barro Alto,Barro Alto,-11.7609331113533,-41.9057834504238
302807,Barro Alto,Barro Alto,-14.9681195575365,-48.9130447281437
301788,Barro Duro,Barro Duro,-5.81713888778382,-42.5149971499669
305898,Barro Preto,Barro Preto,-14.7952316245359,-39.4763584520026
300949,Barrocas,Barrocas,-11.5276638001816,-39.0779158617538
302240,Barrolândia,Barrolândia,-9.83446465460173,-48.7255875135209
300711,Barroquinha,Barroquinha,-3.02090447342976,-41.1361805351184
305395,Barros Cassal,Barros Cassal,-29.0929815015298,-52.5829405098927
303123,Barroso,Barroso,-21.191136844788,-43.9724131986779
303737,Barueri,Barueri,-23.506167497582,-46.8794426552951
304473,Bastos,Bastos,-21.9214480269747,-50.7361160114499
305572,Bataguassu,Bataguassu,-21.716358122069,-52.422488710755
302425,Batalha,Batalha,-4.02269637214438,-42.0790173024887
301210,Batalha,Batalha,-9.6734577266887,-37.1278597397899
303345,Batatais,Batatais,-20.8933355954471,-47.5925470262496
304850,Batayporã,Batayporã,-22.2949023425063,-53.2709255231919
300906,Baturité,Baturité,-4.32638260387601,-38.8815213117832
303844,Bauru,Bauru,-22.3250383795231,-49.0875537473105
300416,Bayeux,Bayeux,-7.1282433924628,-34.9256087244273
303626,Bebedouro,Bebedouro,-20.9495436937459,-48.4794869580672
302343,Beberibe,Beberibe,-4.17781395285528,-38.1273848896059
300700,Bela Cruz,Bela Cruz,-3.05035495592145,-40.1674508676719
305234,Bela Vista,Bela Vista,-22.1077759880686,-56.5267434420417
305330,Bela Vista da Caroba,Bela Vista da Caroba,-25.8846439760412,-53.6729573186396
303356,Bela Vista de Goiás,Bela Vista de Goiás,-16.9697470558941,-48.9517044535921
304906,Bela Vista de Minas,Bela Vista de Minas,-19.8306846265602,-43.0925287500416
303584,Bela Vista do Maranhão,Bela Vista do Maranhão,-3.7196290754367,-45.268817171315
305742,Bela Vista do Paraíso,Bela Vista do Paraíso,-22.9941187043096,-51.1930841163287
301074,Bela Vista do Piauí,Bela Vista do Piauí,-7.98851082223207,-41.8678603131152
305259,Bela Vista do Toldo,Bela Vista do Toldo,-26.275100620735,-50.4667877530411
301655,Belágua,Belágua,-3.16041150238262,-43.5083366302487
300439,Belém,Belém,-6.7434595215496,-35.5172208801456
301162,Belém,Belém,-9.57090555022874,-36.4907004511021
295773,Belém,Belém,-1.45615449647993,-48.4905112077498
301106,Belém de Maria,Belém de Maria,-8.62546596600891,-35.8337655334163
301292,Belém de São Francisco,Belém de São Francisco,-8.75088660729011,-38.9625736758743
300559,Belém do Brejo do Cruz,Belém do Brejo do Cruz,-6.18555807279598,-37.5350696069836
301057,Belém do Piauí,Belém do Piauí,-7.3669409647133,-40.969117655203
303144,Belford Roxo,Belford Roxo,-22.7645266785395,-43.3995842650222
314307,Bella Unión,Bella Unión,-30.2529934263101,-57.6080725406866
314289,Bella Vista,Bella Vista,-22.1228220927929,-56.5004713468896
314323,Bella Vista,Bella Vista,-27.0582609241009,-55.5541031244529
314334,Bella Vista,Bella Vista,-28.5067185623988,-59.0405120296256
314495,Bellavista,Bellavista,-7.00432230823599,-76.6001107208564
303114,Belmiro Braga,Belmiro Braga,-21.9444737986347,-43.4087911466437
301764,Belmonte,Belmonte,-15.8612537358291,-38.8761067421859
305350,Belmonte,Belmonte,-26.8434610449321,-53.5762654777925
301620,Belo Campo,Belo Campo,-15.0338191554035,-41.2655146134077
295777,Belo Horizonte,Belo Horizonte,-19.9111294232859,-43.9273135606535
300603,Belo Jardim,Belo Jardim,-8.33686259942903,-36.4223615573718
301220,Belo Monte,Belo Monte,-9.82315233817012,-37.2773214574806
303056,Belo Oriente,Belo Oriente,-19.2203794304951,-42.4831540834332
302853,Belo Vale,Belo Vale,-20.408199863343,-44.0278346591174
304164,Belterra,Belterra,-2.6364748589027,-54.9378063929085
301784,Beneditinos,Beneditinos,-5.45680264102018,-42.3598409648424
301869,Benedito Leite,Benedito Leite,-7.21969751613125,-44.5544119538039
304608,Benedito Novo,Benedito Novo,-26.7814540893626,-49.3597423805315
301930,Benevides,Benevides,-1.36220774984031,-48.2437840957309
314285,Benjamin Aceval,Benjamin Aceval,-24.9485311477792,-57.5550869863454
305837,Benjamin Constant,Benjamin Constant,-4.37806295484023,-70.0346365865169
305361,Benjamin Constant do Sul,Benjamin Constant do Sul,-27.5090363902718,-52.5999561461477
304462,Bento de Abreu,Bento de Abreu,-21.2709918807064,-50.8119468048751
301168,Bento Fernandes,Bento Fernandes,-5.69238385620951,-35.8206912924
305189,Bento Gonçalves,Bento Gonçalves,-29.166689846017,-51.5169282565747
314432,Benzdorp,Benzdorp,3.65170301663255,-54.0932672960392
301686,Bequimão,Bequimão,-2.44952644199225,-44.7908287171991
302653,Berilo,Berilo,-16.9522439221667,-42.4644870539599
301630,Berizal,Berizal,-15.6104871186041,-41.7435489262086
300997,Bernardino Batista,Bernardino Batista,-6.45375311608112,-38.5501980486099
304423,Bernardino de Campos,Bernardino de Campos,-23.0129889292242,-49.4739481776222
302437,Bernardo do Mearim,Bernardo do Mearim,-4.62706173384252,-44.761108324366
302033,Bernardo Sayão,Bernardo Sayão,-7.88088515155227,-48.8958013189275
303940,Bertioga,Bertioga,-23.849049423163,-46.1399826402936
301852,Bertolínia,Bertolínia,-7.63379315203723,-43.9501300020365
303593,Bertópolis,Bertópolis,-17.059476642665,-40.580314181741
304641,Beruri,Beruri,-3.89912252614968,-61.3620661183121
300827,Betânia,Betânia,-8.27353926780455,-38.0364744280984
301031,Betânia do Piauí,Betânia do Piauí,-8.14418257980105,-40.7992410874527
302919,Betim,Betim,-19.9672998509792,-44.20114781521
300585,Bezerros,Bezerros,-8.23322199303147,-35.7962902298206
303126,Bias Fortes,Bias Fortes,-21.6024407962557,-43.7577397344888
303100,Bicas,Bicas,-21.7236457999466,-43.0563270657694
304620,Biguaçu,Biguaçu,-27.4964878077907,-48.6602164023346
304459,Bilac,Bilac,-21.404425220796,-50.4750578902886
302962,Biquinhas,Biquinhas,-18.7696477082001,-45.4981021782411
304458,Birigui,Birigui,-21.2914972198032,-50.3435787500064
303297,Biritiba-Mirim,Biritiba-Mirim,-23.5702548340112,-46.0410951178749
301404,Biritinga,Biritinga,-11.6214563276648,-38.8054473431117
305086,Bituruna,Bituruna,-26.1612180773378,-51.5522322736943
304024,Blumenau,Blumenau,-26.9159822632564,-49.0713309620035
302471,Boa Esperança,Boa Esperança,-18.5399696911628,-40.3028629872713
303216,Boa Esperança,Boa Esperança,-21.0931969367312,-45.5615879430151
305045,Boa Esperança,Boa Esperança,-24.2472022577444,-52.788001034419
305643,Boa Esperança do Iguaçu,Boa Esperança do Iguaçu,-25.6329009152269,-53.2112665773137
303814,Boa Esperança do Sul,Boa Esperança do Sul,-21.9923021389019,-48.3910282666526
301769,Boa Hora,Boa Hora,-4.40805862604446,-42.1221537895233
301566,Boa Nova,Boa Nova,-14.3641744835818,-40.2060515640468
300819,Boa Ventura,Boa Ventura,-7.4205612220734,-38.2181183467502
304830,Boa Ventura de São Roque,Boa Ventura de São Roque,-24.8692655818649,-51.6280483289163
300915,Boa Viagem,Boa Viagem,-5.11298717469757,-39.7339736698885
300651,Boa Vista,Boa Vista,-7.25982829092351,-36.236921190971
295789,Boa Vista,Boa Vista,2.82312592890676,-60.6762131234403
305644,Boa Vista da Aparecida,Boa Vista da Aparecida,-25.4312198985886,-53.4121430426912
305684,Boa Vista das Missões,Boa Vista das Missões,-27.6675923389416,-53.3106252142515
305437,Boa Vista do Buricá,Boa Vista do Buricá,-27.6697466954501,-54.1086910999515
300405,Boa Vista do Cadeado,Boa Vista do Cadeado,-28.5795239268307,-53.8112849234028
301884,Boa Vista do Gurupi,Boa Vista do Gurupi,-1.77651851933178,-46.3005871577531
300402,Boa Vista do Incra,Boa Vista do Incra,-28.8186862374266,-53.3865774139163
304173,Boa Vista do Ramos,Boa Vista do Ramos,-2.97447145840299,-57.5877610268919
305199,Boa Vista do Sul,Boa Vista do Sul,-29.3566653747921,-51.6701551928759
301556,Boa Vista do Tupim,Boa Vista do Tupim,-12.660564144084,-40.6088515074757
301155,Boca da Mata,Boca da Mata,-9.64351622385885,-36.2127974604467
305854,Boca do Acre,Boca do Acre,-8.74271816784217,-67.3924007182596
301040,Bocaina,Bocaina,-6.94557091387602,-41.3237032055037
304594,Bocaina,Bocaina,-22.1359899059176,-48.5179499712707
303186,Bocaina de Minas,Bocaina de Minas,-22.1701673130268,-44.3975607253157
304095,Bocaina do Sul,Bocaina do Sul,-27.7459743513384,-49.9427149803162
302706,Bocaiúva,Bocaiúva,-17.1140062614545,-43.8107970067343
303986,Bocaiúva do Sul,Bocaiúva do Sul,-25.2070680864358,-49.1145520969888
300523,Bodó,Bodó,-5.98697264309504,-36.4128342603635
301467,Bodocó,Bodocó,-7.77801214253609,-39.9341217600676
305604,Bodoquena,Bodoquena,-20.5518892460263,-56.6749198205604
304655,Bofete,Bofete,-23.1019884076893,-48.2579500144478
295790,Bogotá,Bogotá,4.59928321015431,-74.0809830188127
303765,Boituva,Boituva,-23.2860067881984,-47.6789793683331
314512,Bolivar,Bolivar,-7.14987829048873,-77.7003632506635
301140,Bom Conselho,Bom Conselho,-9.16962199075302,-36.6859855429946
303006,Bom Despacho,Bom Despacho,-19.7301979927391,-45.2517237480301
303064,Bom Jardim,Bom Jardim,-22.1550107676272,-42.4254606391671
303582,Bom Jardim,Bom Jardim,-3.54168208252156,-45.6063642757485
300494,Bom Jardim,Bom Jardim,-7.79896872696607,-35.5879617229414
304110,Bom Jardim da Serra,Bom Jardim da Serra,-28.3381485104358,-49.6377123352101
304525,Bom Jardim de Goiás,Bom Jardim de Goiás,-16.2000849347428,-52.1759029200839
304998,Bom Jardim de Minas,Bom Jardim de Minas,-21.9483550324969,-44.1888756703594
302066,Bom Jesus,Bom Jesus,-9.07166248378536,-44.3593069946952
300806,Bom Jesus,Bom Jesus,-6.8164253017222,-38.6456589640441
302325,Bom Jesus,Bom Jesus,-5.98689088725121,-35.5794881967856
305115,Bom Jesus,Bom Jesus,-26.7330656154882,-52.3923477443647
305142,Bom Jesus,Bom Jesus,-28.6701835848508,-50.4298959906214
302107,Bom Jesus da Lapa,Bom Jesus da Lapa,-13.2510165491786,-43.411108744879
303500,Bom Jesus da Penha,Bom Jesus da Penha,-21.0152574868517,-46.5177602097019
301568,Bom Jesus da Serra,Bom Jesus da Serra,-14.373951077843,-40.5048843122826
301952,Bom Jesus das Selvas,Bom Jesus das Selvas,-4.48358376696464,-46.8535873231879
303393,Bom Jesus de Goiás,Bom Jesus de Goiás,-18.2177088759603,-49.7403951227314
304910,Bom Jesus do Amparo,Bom Jesus do Amparo,-19.7067236020304,-43.4743305595615
300370,Bom Jesus do Araguaia,Bom Jesus do Araguaia,-12.1709997881375,-51.503558438145
302905,Bom Jesus do Galho,Bom Jesus do Galho,-19.8363018088848,-42.3179829019457
302640,Bom Jesus do Itabapoana,Bom Jesus do Itabapoana,-21.1453336293102,-41.6825797385177
302638,Bom Jesus do Norte,Bom Jesus do Norte,-21.1177725429007,-41.6734866063513
305535,Bom Jesus do Oeste,Bom Jesus do Oeste,-26.6932053062452,-53.0971769519381
305332,Bom Jesus do Sul,Bom Jesus do Sul,-26.1962678039763,-53.5959460503952
302202,Bom Jesus do Tocantins,Bom Jesus do Tocantins,-8.9634791278489,-48.1654231255314
302580,Bom Jesus do Tocantins,Bom Jesus do Tocantins,-5.04280094313577,-48.6050806346848
303936,Bom Jesus dos Perdões,Bom Jesus dos Perdões,-23.1360574278418,-46.4678707533577
302439,Bom Lugar,Bom Lugar,-4.37335607547643,-45.0398790645856
305486,Bom Princípio,Bom Princípio,-29.486112922395,-51.3552156110795
300720,Bom Princípio do Piauí,Bom Princípio do Piauí,-3.19118805809681,-41.6443668516563
305423,Bom Progresso,Bom Progresso,-27.5403232714309,-53.8720681224067
303535,Bom Repouso,Bom Repouso,-22.4679711369271,-46.1444286248707
304090,Bom Retiro,Bom Retiro,-27.7994748926492,-49.487427160209
305788,Bom Retiro do Sul,Bom Retiro do Sul,-29.5971863359411,-51.9374610008106
303162,Bom Sucesso,Bom Sucesso,-21.0333505439242,-44.7541242436659
300929,Bom Sucesso,Bom Sucesso,-6.44217444864558,-37.9237185598358
304774,Bom Sucesso,Bom Sucesso,-23.7067789084434,-51.7674889695405
304953,Bom Sucesso de Itararé,Bom Sucesso de Itararé,-24.3179869227944,-49.1439481707434
305639,Bom Sucesso do Sul,Bom Sucesso do Sul,-26.0735809455026,-52.8357449449938
304006,Bombinhas,Bombinhas,-27.1387284482888,-48.5149850533415
302925,Bonfim,Bonfim,-20.3306891291426,-44.2369389271843
305880,Bonfim,Bonfim,3.36125887837265,-59.8337389291066
302051,Bonfim do Piauí,Bonfim do Piauí,-9.16020616051745,-42.8835900433374
302403,Bonfinópolis,Bonfinópolis,-16.6177217347504,-48.9619667859277
302590,Bonfinópolis de Minas,Bonfinópolis de Minas,-16.5659579909106,-45.9880621079732
301579,Boninal,Boninal,-12.707332009545,-41.8289471388892
301104,Bonito,Bonito,-8.47205551685826,-35.7295439138593
301499,Bonito,Bonito,-11.9672099450156,-41.2650362622031
301905,Bonito,Bonito,-1.36782992885995,-47.3069423597519
305230,Bonito,Bonito,-21.1265429847184,-56.4840171476282
302176,Bonito de Minas,Bonito de Minas,-15.3214205474487,-44.7572066868858
300804,Bonito de Santa Fé,Bonito de Santa Fé,-7.31382541560562,-38.513649358078
302801,Bonópolis,Bonópolis,-13.650881112919,-49.8341962852285
301322,Boqueirão,Boqueirão,-7.48264595484794,-36.1322830925836
305626,Boqueirão do Leão,Boqueirão do Leão,-29.3050949630553,-52.4288907471478
301771,Boqueirão do Piauí,Boqueirão do Piauí,-4.48857290529299,-42.1047578867022
301262,Boquim,Boquim,-11.1463261640853,-37.6205595820573
302101,Boquira,Boquira,-12.8209803886055,-42.7327035171326
304491,Borá,Borá,-22.269490841827,-50.5446005066351
303840,Boracéia,Boracéia,-22.1931147667527,-48.7811603808503
304245,Borba,Borba,-4.39192843988688,-59.5878183154353
300444,Borborema,Borborema,-6.80241211752465,-35.6190209530807
304587,Borborema,Borborema,-21.6218353324388,-49.0744986412335
303532,Borda da Mata,Borda da Mata,-22.2711774538202,-46.165741218566
303847,Borebi,Borebi,-22.5689894134753,-48.9709491172775
304772,Borrazópolis,Borrazópolis,-23.9370739678497,-51.5879396220833
305805,Bossoroca,Bossoroca,-28.7295545549941,-54.9039784996752
303507,Botelhos,Botelhos,-21.6416308656226,-46.391398021356
303836,Botucatu,Botucatu,-22.8841696468984,-48.4441152198514
302700,Botumirim,Botumirim,-16.8662036267219,-43.0089360005239
302143,Botuporã,Botuporã,-13.3795988145347,-42.5245462191438
304028,Botuverá,Botuverá,-27.2012309048546,-49.0693200298891
300404,Bozano,Bozano,-28.3663748631838,-53.7724278693773
304066,Braço do Norte,Braço do Norte,-28.2685658576544,-49.1704889056779
304093,Braço do Trombudo,Braço do Trombudo,-27.3590577391045,-49.882579057548
305421,Braga,Braga,-27.6178158331782,-53.7409736469232
301886,Bragança,Bragança,-1.05300278039013,-46.7710410543099
303634,Bragança Paulista,Bragança Paulista,-22.9531586787889,-46.5422767239852
305064,Braganey,Braganey,-24.8178045142319,-53.1222320598653
301476,Branquinha,Branquinha,-9.23385193379247,-36.0164496526536
302842,Brás Pires,Brás Pires,-20.8423901636977,-43.2409241824159
304149,Brasil Novo,Brasil Novo,-3.29792264287093,-52.5392838256138
304800,Brasilândia,Brasilândia,-21.2548868757455,-52.0369460407307
302959,Brasilândia de Minas,Brasilândia de Minas,-16.9976410936029,-46.012338707262
305002,Brasilândia do Sul,Brasilândia do Sul,-24.1982239968944,-53.5279723121937
302226,Brasilândia do Tocantins,Brasilândia do Tocantins,-8.38959802676304,-48.4825944912648
305861,Brasiléia,Brasiléia,-10.9953930710566,-68.7501787722266
300728,Brasileira,Brasileira,-4.1340931772773,-41.7861903663248
295763,Brasília,Brasília,-15.780420857709,-47.930434270556
302187,Brasília de Minas,Brasília de Minas,-16.211907463169,-44.4279838572802
304229,Brasnorte,Brasnorte,-12.1210901001713,-58.0029256781701
303882,Braúna,Braúna,-21.4995028874332,-50.3179061790842
303055,Braúnas,Braúnas,-19.0566323258278,-42.7102563351831
302602,Brazabrantes,Brazabrantes,-16.4315650185764,-49.3857086885412
303454,Brazópolis,Brazópolis,-22.4704974317028,-45.6133839937303
301135,Brejão,Brejão,-9.02812984244487,-36.5678557074375
302547,Brejetuba,Brejetuba,-20.139968482497,-41.2957625955092
300778,Brejinho,Brejinho,-7.3473594660115,-37.2867985399535
302322,Brejinho,Brejinho,-6.1953788091913,-35.3561236071403
302253,Brejinho de Nazaré,Brejinho de Nazaré,-11.0208578727875,-48.5683329065404
301645,Brejo,Brejo,-3.67835100100721,-42.7530456945551
303874,Brejo Alegre,Brejo Alegre,-21.165991836752,-50.1849477800587
300602,Brejo da Madre de Deus,Brejo da Madre de Deus,-8.14415447598212,-36.3710458900236
303191,Brejo de Areia,Brejo de Areia,-4.33055600691811,-45.584059617032
300608,Brejo do Cruz,Brejo do Cruz,-6.34226608115413,-37.4946464062496
301837,Brejo do Piauí,Brejo do Piauí,-8.20782148410047,-42.8356397840652
300927,Brejo dos Santos,Brejo dos Santos,-6.37106506456765,-37.8256198112009
301187,Brejo Grande,Brejo Grande,-10.4301516370311,-36.4614040273016
302583,Brejo Grande do Araguaia,Brejo Grande do Araguaia,-5.69866248799307,-48.4026666420973
300838,Brejo Santo,Brejo Santo,-7.48897617688667,-38.9864141153805
301728,Brejões,Brejões,-13.1039921021319,-39.7941787744926
302282,Brejolândia,Brejolândia,-12.4863488119098,-43.9615933278766
301949,Breu Branco,Breu Branco,-3.77229971123086,-49.573843787597
304669,Breves,Breves,-1.68074013886629,-50.4794744342
304546,Britânia,Britânia,-15.2428741869031,-51.1653878557101
305767,Brochier,Brochier,-29.5506142091889,-51.5949704648194
303657,Brodowski,Brodowski,-20.98500074244,-47.657615696205
303919,Brotas,Brotas,-22.2799476684647,-48.1255203524859
302274,Brotas de Macaúbas,Brotas de Macaúbas,-11.995057420391,-42.630238595395
302922,Brumadinho,Brumadinho,-20.1514625401144,-44.2010482497336
301590,Brumado,Brumado,-14.2025795817598,-41.6699361639049
305134,Brunópolis,Brunópolis,-27.3062575448779,-50.8688103071903
304022,Brusque,Brusque,-27.0981881575068,-48.911089574815
314335,Buena Vista,Buena Vista,-26.1620428984467,-56.0496643329164
303537,Bueno Brandão,Bueno Brandão,-22.4387975442405,-46.3494959383542
302948,Buenópolis,Buenópolis,-17.8748967261136,-44.177872045111
300486,Buenos Aires,Buenos Aires,-7.72175768420553,-35.3272797041095
295796,Buenos Aires,Buenos Aires,-34.580912819657,-58.4110469549066
301748,Buerarema,Buerarema,-14.956058397834,-39.3027135283222
302901,Bugre,Bugre,-19.4235381351955,-42.2555419250503
301197,Buíque,Buíque,-8.62302629437864,-37.1557787922741
305894,Bujari,Bujari,-9.83395265911255,-67.9522970238497
301916,Bujaru,Bujaru,-1.51799568219691,-48.0384378722706
304663,Buri,Buri,-23.7981638270406,-48.5962240335187
303873,Buritama,Buritama,-21.0665270389914,-50.1479088970897
301646,Buriti,Buriti,-3.94208753467092,-42.9182789016519
303368,Buriti Alegre,Buriti Alegre,-18.138244068005,-49.0408415712071
302572,Buriti Bravo,Buriti Bravo,-5.83279816871341,-43.8356379530523
304547,Buriti de Goiás,Buriti de Goiás,-16.1765890059488,-50.434612224618
301984,Buriti do Tocantins,Buriti do Tocantins,-5.31488360637105,-48.2275115034195
300723,Buriti dos Lopes,Buriti dos Lopes,-3.17888308703057,-41.8702840182773
301002,Buriti dos Montes,Buriti dos Montes,-5.30624465574225,-41.0936801981057
301951,Buriticupu,Buriticupu,-4.32142369981528,-46.4542091920605
302866,Buritinópolis,Buritinópolis,-14.4560578273176,-46.431348690813
302277,Buritirama,Buritirama,-10.7175743450579,-43.6339513089039
301955,Buritirana,Buritirana,-5.59863587636938,-47.0134581918005
302762,Buritis,Buritis,-15.6222534370604,-46.4224566480493
304325,Buritis,Buritis,-10.2059885819944,-63.8311821624952
303338,Buritizal,Buritizal,-20.1915500001829,-47.7100329820542
302947,Buritizeiro,Buritizeiro,-17.3509961539379,-44.9619568164949
305513,Butiá,Butiá,-30.118397822072,-51.9605164285957
314470,Caacupé,Caacupé,-25.3963462492242,-57.1164433053908
314327,Caaguazú,Caaguazú,-25.4570768744497,-56.0077163374478
304639,Caapiranga,Caapiranga,-3.31575634969334,-61.2210022079797
300677,Caaporã,Caaporã,-7.51393010148152,-34.9058020930756
314511,Caapucú,Caapucú,-26.228432436515,-57.1391197284253
305611,Caarapó,Caarapó,-22.6372188874678,-54.8213756220431
301605,Caatiba,Caatiba,-14.9782364251345,-40.4091904487535
314348,Caazapá,Caazapá,-26.1806369194251,-56.3596571679996
300592,Cabaceiras,Cabaceiras,-7.49188278294882,-36.2881030017218
301419,Cabaceiras do Paraguaçu,Cabaceiras do Paraguaçu,-12.5321414043294,-39.1905552706512
314476,Caballero,Caballero,-25.6913795903598,-56.8428629404157
302768,Cabeceira Grande,Cabeceira Grande,-16.0270486651706,-47.0878537881851
302767,Cabeceiras,Cabeceiras,-15.8062214969153,-46.9237284513948
301774,Cabeceiras do Piauí,Cabeceiras do Piauí,-4.47255654119034,-42.3064071258681
302338,Cabedelo,Cabedelo,-6.98773278538543,-34.8286961823413
304311,Cabixi,Cabixi,-13.4951037036877,-60.5446014818898
300476,Cabo de Santo Agostinho,Cabo de Santo Agostinho,-8.28260686269251,-35.0255825235068
303066,Cabo Frio,Cabo Frio,-22.8899182938786,-42.0289596859096
303499,Cabo Verde,Cabo Verde,-21.4704182983448,-46.3922485672861
303887,Cabrália Paulista,Cabrália Paulista,-22.4580291194503,-49.3397507636885
303741,Cabreúva,Cabreúva,-23.3058072419953,-47.1366527905902
301293,Cabrobó,Cabrobó,-8.50590889106616,-39.3097049380904
305624,Caçador,Caçador,-26.7761450177961,-51.0124431686596
303289,Caçapava,Caçapava,-23.0996842128202,-45.7080364358508
305714,Caçapava do Sul,Caçapava do Sul,-30.5148329530884,-53.4831550603911
304280,Cacaulândia,Cacaulândia,-10.338727116795,-62.9002771266095
305821,Cacequi,Cacequi,-29.8839427504431,-54.8249048681068
304626,Cáceres,Cáceres,-16.0768455351019,-57.6822432200072
301523,Cachoeira,Cachoeira,-12.5998910428318,-38.9590176864013
304343,Cachoeira Alta,Cachoeira Alta,-18.7622810748018,-50.9436568031653
304404,Cachoeira da Prata,Cachoeira da Prata,-19.52499271906,-44.4539570617254
304978,Cachoeira de Goiás,Cachoeira de Goiás,-16.6668729378051,-50.6435783805726
303469,Cachoeira de Minas,Cachoeira de Minas,-22.351584640876,-45.7812558156075
301635,Cachoeira de Pajeú,Cachoeira de Pajeú,-15.9692891671407,-41.4951117844098
301927,Cachoeira do Arari,Cachoeira do Arari,-1.01111746934497,-48.9602734889817
301885,Cachoeira do Piriá,Cachoeira do Piriá,-1.76011937361559,-46.5462956968272
305559,Cachoeira do Sul,Cachoeira do Sul,-30.0389803407005,-52.8939394585595
300807,Cachoeira dos Índios,Cachoeira dos Índios,-6.91889303260541,-38.6786341751851
303394,Cachoeira Dourada,Cachoeira Dourada,-18.4863493508356,-49.4770071086157
303395,Cachoeira Dourada,Cachoeira Dourada,-18.5166033954716,-49.5042803499297
301679,Cachoeira Grande,Cachoeira Grande,-2.93113401337591,-44.0531130313071
303618,Cachoeira Paulista,Cachoeira Paulista,-22.6669785127614,-45.0157694052083
303075,Cachoeiras de Macacu,Cachoeiras de Macacu,-22.4662873667974,-42.652714095063
301480,Cachoeirinha,Cachoeirinha,-8.48836979699532,-36.2369841095732
301986,Cachoeirinha,Cachoeirinha,-6.11795073731421,-47.9206372833635
305497,Cachoeirinha,Cachoeirinha,-29.9477025356346,-51.102059017168
302551,Cachoeiro de Itapemirim,Cachoeiro de Itapemirim,-20.8466946447984,-41.1201819331082
314444,Cachuela Esperanza,Cachuela Esperanza,-10.5554699914558,-65.5832874376228
300794,Cacimba de Areia,Cacimba de Areia,-7.12880135412648,-37.1565627905652
300566,Cacimba de Dentro,Cacimba de Dentro,-6.63993638025872,-35.7934765144063
300792,Cacimbas,Cacimbas,-7.21161330822932,-37.0573936744244
302554,Cacimbinhas,Cacimbinhas,-9.40164411224867,-36.9913869850185
305587,Cacique Doble,Cacique Doble,-27.7675189086219,-51.6601182558581
304283,Cacoal,Cacoal,-11.4346825901019,-61.4566214715728
303510,Caconde,Caconde,-21.5284678980968,-46.6440524173219
304344,Caçu,Caçu,-18.5598350081663,-51.1332124602643
303196,Caculé,Caculé,-14.5007341973921,-42.2232204772151
301452,Caém,Caém,-11.0681311625605,-40.4323703674393
304396,Caetanópolis,Caetanópolis,-19.2975448600533,-44.4192437755527
301586,Caetanos,Caetanos,-14.3389073445847,-40.9100193803318
302821,Caeté,Caeté,-19.8830836386664,-43.6707219279563
301128,Caetés,Caetés,-8.77246410650848,-36.6262617574476
303198,Caetité,Caetité,-14.0688727627737,-42.4864826339887
301504,Cafarnaum,Cafarnaum,-11.6918392750312,-41.4691623435345
304698,Cafeara,Cafeara,-22.789513773488,-51.7146246945218
303866,Cafelândia,Cafelândia,-21.8035785425301,-49.6096265788695
305059,Cafelândia,Cafelândia,-24.6193255041521,-53.3211505521819
304875,Cafezal do Sul,Cafezal do Sul,-23.9009693946207,-53.5128621982951
304490,Caiabu,Caiabu,-22.0120036220161,-51.2359996449452
302628,Caiana,Caiana,-20.6960593814754,-41.9295664596996
304346,Caiapônia,Caiapônia,-16.9543243131392,-51.8094908012294
305728,Caibaté,Caibaté,-28.2879835267186,-54.6379378305775
305318,Caibi,Caibi,-27.0745705205479,-53.2462053883653
300436,Caiçara,Caiçara,-6.62156705483816,-35.4584186545794
305680,Caiçara,Caiçara,-27.2795892964127,-53.4261263244008
301358,Caiçara do Norte,Caiçara do Norte,-5.06385130969102,-36.0534313434023
301171,Caiçara do Rio do Vento,Caiçara do Rio do Vento,-5.75745612443325,-36.0011411877825
300966,Caicó,Caicó,-6.46257478356429,-37.0955809376669
303732,Caieiras,Caieiras,-23.3612074213871,-46.7401392736794
301537,Cairu,Cairu,-13.4908296028925,-39.0468494797597
305570,Caiuá,Caiuá,-21.8317197346516,-51.9898052448771
303734,Cajamar,Cajamar,-23.3554920507826,-46.8785461954441
301689,Cajapió,Cajapió,-2.87365047337084,-44.6744510565043
301707,Cajari,Cajari,-3.32780705498044,-45.0148544057564
314399,Cajatambo,Cajatambo,-10.4630982558258,-76.9901662175816
303799,Cajati,Cajati,-24.7278230853524,-48.1109420784927
300805,Cajazeiras,Cajazeiras,-6.88045975013325,-38.5580363810371
301819,Cajazeiras do Piauí,Cajazeiras do Piauí,-6.79707964678969,-42.3906189520198
300980,Cajazeirinhas,Cajazeirinhas,-6.96058073761115,-37.8012380045095
303700,Cajobi,Cajobi,-20.8777526915272,-48.8067418743541
301479,Cajueiro,Cajueiro,-9.39983481526609,-36.1562358294959
300713,Cajueiro da Praia,Cajueiro da Praia,-2.93150384561011,-41.3411329088036
302756,Cajuri,Cajuri,-20.7907799279523,-42.7928688756158
303654,Cajuru,Cajuru,-21.2754045178359,-47.3034191347438
301121,Calçado,Calçado,-8.74099269516991,-36.3359441355909
305868,Calçoene,Calçoene,2.49472687607469,-50.9504875860463
303509,Caldas,Caldas,-21.91878378772,-46.3847067301299
300456,Caldas Brandão,Caldas Brandão,-7.10330760258189,-35.3250074230992
304575,Caldas Novas,Caldas Novas,-17.7445155231451,-48.6249760670155
302404,Caldazinha,Caldazinha,-16.7155222699917,-48.9991875501409
301446,Caldeirão Grande,Caldeirão Grande,-11.0279448319307,-40.2974657754548
301021,Caldeirão Grande do Piauí,Caldeirão Grande do Piauí,-7.33182100473341,-40.6369293292736
304742,Califórnia,Califórnia,-23.6570539285522,-51.3577972672389
305621,Calmon,Calmon,-26.594715385052,-51.0954560064521
300826,Calumbi,Calumbi,-7.93928479851975,-38.1527010366205
301762,Camacan,Camacan,-15.4146186415754,-39.4922675240977
301512,Camaçari,Camaçari,-12.7000873375359,-38.3265832244095
303026,Camacho,Camacho,-20.6298402105829,-45.159708022218
300772,Camalaú,Camalaú,-7.8854541007696,-36.824493548862
301740,Camamu,Camamu,-13.9402278338505,-39.1074075365034
303546,Camanducaia,Camanducaia,-22.752012025408,-46.1498374686224
305735,Camapuã,Camapuã,-19.53512121848,-54.0434990310334
305543,Camaquã,Camaquã,-30.8493764256379,-51.8047718524498
300473,Camaragibe,Camaragibe,-8.02393027570235,-34.9784409847702
305213,Camargo,Camargo,-28.5884535791832,-52.2007171499167
303904,Cambará,Cambará,-23.0427418234047,-50.0757012432258
304130,Cambará do Sul,Cambará do Sul,-29.0478902093733,-50.1469497089872
304739,Cambé,Cambé,-23.2770411913583,-51.2802605556051
304761,Cambira,Cambira,-23.5894841463569,-51.579583422842
304008,Camboriú,Camboriú,-27.0245607788487,-48.6507625422004
302644,Cambuci,Cambuci,-21.5695417300607,-41.919083489712
303941,Cambuí,Cambuí,-22.6120148081215,-46.0576204393551
303220,Cambuquira,Cambuquira,-21.8544621600873,-45.2899570810824
302142,Cametá,Cametá,-2.24333245484192,-49.4982688044047
300703,Camocim,Camocim,-2.89873589826298,-40.8480130259815
300584,Camocim de São Félix,Camocim de São Félix,-8.35907579324817,-35.7656270962505
314428,Camopi,Camopi,3.18794511189335,-52.3402334835092
302876,Campanário,Campanário,-18.2431808038457,-41.7358577274854
303226,Campanha,Campanha,-21.8364538404655,-45.4007797956912
301090,Campestre,Campestre,-8.84765794744486,-35.5687640100956
303506,Campestre,Campestre,-21.7083484461124,-46.2384711675781
305147,Campestre da Serra,Campestre da Serra,-28.793063617684,-51.0945958852598
302611,Campestre de Goiás,Campestre de Goiás,-16.7634056076569,-49.6941922084054
301974,Campestre do Maranhão,Campestre do Maranhão,-6.1711526983844,-47.3628407453398
305047,Campina da Lagoa,Campina da Lagoa,-24.5897879835385,-52.7980322875558
305793,Campina das Missões,Campina das Missões,-27.9892977167437,-54.8421158709091
304658,Campina do Monte Alegre,Campina do Monte Alegre,-23.5919877593082,-48.4769494907228
304832,Campina do Simão,Campina do Simão,-25.0806399304306,-51.8241480302625
300632,Campina Grande,Campina Grande,-7.22237762440728,-35.8734390990489
303987,Campina Grande do Sul,Campina Grande do Sul,-25.3048674980099,-49.0555170446421
303412,Campina Verde,Campina Verde,-19.5343262666059,-49.4876430470969
302784,Campinaçu,Campinaçu,-13.7910851401172,-48.5690550346463
304528,Campinápolis,Campinápolis,-14.5161942788178,-52.8929816885772
303652,Campinas,Campinas,-22.9058222187837,-47.0663501296189
301071,Campinas do Piauí,Campinas do Piauí,-7.65971695352799,-41.8778251161694
305366,Campinas do Sul,Campinas do Sul,-27.7178976780445,-52.6252611631262
302791,Campinorte,Campinorte,-14.3141114876873,-49.1514865914891
301160,Campo Alegre,Campo Alegre,-9.78494694195666,-36.3527616224436
303995,Campo Alegre,Campo Alegre,-26.1955060247476,-49.2680136072868
304939,Campo Alegre de Goiás,Campo Alegre de Goiás,-17.6368028285453,-47.7772064293842
302062,Campo Alegre de Lourdes,Campo Alegre de Lourdes,-9.51602439713533,-43.0088453615124
301076,Campo Alegre do Fidalgo,Campo Alegre do Fidalgo,-8.37731853084072,-41.8368686895192
302195,Campo Azul,Campo Azul,-16.5059995720032,-44.8113595914909
303238,Campo Belo,Campo Belo,-20.893655898072,-45.2702744418775
305133,Campo Belo do Sul,Campo Belo do Sul,-27.898018054715,-50.7599919689479
305475,Campo Bom,Campo Bom,-29.6751742341626,-51.0610525199557
305065,Campo Bonito,Campo Bonito,-25.0299103420255,-52.9943780468042
301254,Campo do Brito,Campo do Brito,-10.7458157301748,-37.4934537706634
303228,Campo do Meio,Campo do Meio,-21.113208399963,-45.8277198065972
304043,Campo do Tenente,Campo do Tenente,-25.9804912924087,-49.6847915758721
305531,Campo Erê,Campo Erê,-26.3935237804323,-53.0860647108999
303406,Campo Florido,Campo Florido,-19.7635476298988,-48.5720244788555
301441,Campo Formoso,Campo Formoso,-10.5109852638999,-40.3203609708645
301205,Campo Grande,Campo Grande,-9.95585855519422,-36.7929120262045
295785,Campo Grande,Campo Grande,-20.4494893711882,-54.6303427663172
301037,Campo Grande do Piauí,Campo Grande do Piauí,-7.1286895319737,-41.031817913683
304035,Campo Largo,Campo Largo,-25.4530114986616,-49.5294506782674
301642,Campo Largo do Piauí,Campo Largo do Piauí,-3.81095569581499,-42.6298024823535
300366,Campo Limpo de Goiás,Campo Limpo de Goiás,-16.2924264505626,-49.0922541788407
303727,Campo Limpo Paulista,Campo Limpo Paulista,-23.20826883538,-46.7893181513861
304032,Campo Magro,Campo Magro,-25.369161523367,-49.4505158675073
301775,Campo Maior,Campo Maior,-4.82633687253718,-42.1646738876717
304821,Campo Mourão,Campo Mourão,-24.0467939828129,-52.378457857625
305422,Campo Novo,Campo Novo,-27.6796677200694,-53.8056693003635
304326,Campo Novo de Rondônia,Campo Novo de Rondônia,-10.5698892058109,-63.6212184432021
304241,Campo Novo do Parecis,Campo Novo do Parecis,-13.6591591160157,-57.8911643431049
300524,Campo Redondo,Campo Redondo,-6.24267009701024,-36.1832110561797
304237,Campo Verde,Campo Verde,-15.5454130493733,-55.1630127978155
303311,Campos Altos,Campos Altos,-19.6945833119681,-46.168962165646
303049,Campos Belos,Campos Belos,-13.0354237780786,-46.7684885541017
305402,Campos Borges,Campos Borges,-28.887620354295,-53.0012725180187
304307,Campos de Júlio,Campos de Júlio,-13.6917822865295,-59.2571829176252
303461,Campos do Jordão,Campos do Jordão,-22.7300973425986,-45.5837265193084
302635,Campos dos Goytacazes,Campos dos Goytacazes,-21.7626567531339,-41.3184115835903
303229,Campos Gerais,Campos Gerais,-21.2374989858863,-45.7572866507332
301996,Campos Lindos,Campos Lindos,-7.97412885528413,-46.8021987044853
305137,Campos Novos,Campos Novos,-27.4006595955526,-51.2280320015424
304439,Campos Novos Paulista,Campos Novos Paulista,-22.6024198213178,-49.9991444083484
301016,Campos Sales,Campos Sales,-7.07217031164057,-40.3758233152052
302799,Campos Verdes,Campos Verdes,-14.2663528287532,-49.659066795878
300479,Camutanga,Camutanga,-7.40989451412084,-35.2731317549982
303621,Cana Verde,Cana Verde,-21.0236815555225,-45.1804441563194
302750,Canaã,Canaã,-20.6873679082108,-42.6170393740529
301981,Canaã dos Carajás,Canaã dos Carajás,-6.49700000385678,-49.8780000041693
304192,Canabrava do Norte,Canabrava do Norte,-11.0500211680014,-51.8265307398313
303797,Cananéia,Cananéia,-25.0149079105792,-47.9344865835943
302563,Canapi,Canapi,-9.1197489262595,-37.5970091607223
302158,Canápolis,Canápolis,-13.0728976035934,-44.2013088078159
303373,Canápolis,Canápolis,-18.7216867367271,-49.2039529518732
304200,Canarana,Canarana,-13.5523630413315,-52.270013360318
301506,Canarana,Canarana,-11.6862708916777,-41.7680464073468
303619,Canas,Canas,-22.7008245351992,-45.0525027555928
301850,Canavieira,Canavieira,-7.69253776297212,-43.7173706904523
301749,Canavieiras,Canavieiras,-15.672668700922,-38.9539750107568
301411,Candeal,Candeal,-11.8052945992565,-39.1205998882359
301515,Candeias,Candeias,-12.6711353833732,-38.5404782776662
303237,Candeias,Candeias,-20.7696954469591,-45.2768471739989
304321,Candeias do Jamari,Candeias do Jamari,-8.79109706775307,-63.7009622333914
305556,Candelária,Candelária,-29.6688652609594,-52.7899576936059
314516,Candelária,Candelária,-27.4685529247763,-55.7356799037389
303202,Candiba,Candiba,-14.4138277738092,-42.8710146342316
304754,Cândido de Abreu,Cândido de Abreu,-24.5653641722524,-51.337623187269
305726,Cândido Godói,Cândido Godói,-27.9519739669496,-54.7521891728184
301672,Cândido Mendes,Cândido Mendes,-1.43302956664005,-45.7164724043849
304497,Cândido Mota,Cândido Mota,-22.7475601998607,-50.387747309204
303810,Cândido Rodrigues,Cândido Rodrigues,-21.3249911320523,-48.6309500780007
301624,Cândido Sales,Cândido Sales,-15.5064143855315,-41.238132062485
305718,Candiota,Candiota,-31.5579026441954,-53.6729302151181
305090,Candói,Candói,-25.5763168122808,-52.0413170906602
305145,Canela,Canela,-29.3564735407549,-50.8123694672772
304021,Canelinha,Canelinha,-27.2620919641186,-48.7662172213694
300420,Canguaretama,Canguaretama,-6.38141285159391,-35.1293281906007
305698,Canguçu,Canguçu,-31.3964569825664,-52.67872423407
302371,Canhoba,Canhoba,-10.1369014406324,-36.9809445784932
301118,Canhotinho,Canhotinho,-8.87694862706426,-36.1982337045467
300847,Canindé,Canindé,-4.35201758490879,-39.3158233862097
301284,Canindé de São Francisco,Canindé de São Francisco,-9.66055495665353,-37.7890800805809
304428,Canitar,Canitar,-23.0059890409504,-49.7829477088972
305500,Canoas,Canoas,-29.9132381915536,-51.186134416305
305250,Canoinhas,Canoinhas,-26.1770666196427,-50.3954339276367
301395,Cansanção,Cansanção,-10.6651499672603,-39.4947122925245
314418,Canta,Canta,-11.4540295990872,-76.6207050749262
305881,Cantá,Cantá,2.61047301863694,-60.6028756323628
302693,Cantagalo,Cantagalo,-18.522789240917,-42.6252900749978
304927,Cantagalo,Cantagalo,-21.9802202648612,-42.3667897658015
305089,Cantagalo,Cantagalo,-25.3738276893291,-52.1202589253593
301698,Cantanhede,Cantanhede,-3.63446257580234,-44.3806157258118
301836,Canto do Buriti,Canto do Buriti,-8.11152060459837,-42.9520667566336
301299,Canudos,Canudos,-9.90684916661831,-39.1453098072563
300392,Canudos do Vale,Canudos do Vale,-29.3277447867426,-52.2395905738034
304267,Canutama,Canutama,-6.5262133717025,-64.3957408399787
301889,Capanema,Capanema,-1.20566899301706,-47.1781475399571
305327,Capanema,Capanema,-25.6695631523269,-53.8059603020141
305132,Capão Alto,Capão Alto,-27.9394149349978,-50.5102285017509
304661,Capão Bonito,Capão Bonito,-24.0059871112737,-48.3489495295786
300385,Capão Bonito do Sul,Capão Bonito do Sul,-28.1259168818777,-51.3965395716999
304135,Capão da Canoa,Capão da Canoa,-29.7647258808168,-50.0286880288777
300942,Capão do Cipó,Capão do Cipó,-28.9317096417118,-54.5562525399246
305813,Capão do Leão,Capão do Leão,-31.7569381165341,-52.4893498111818
302625,Caparaó,Caparaó,-20.5293767818857,-41.9064209031201
301232,Capela,Capela,-10.5063245919279,-37.0539219718472
301478,Capela,Capela,-9.41547397115335,-36.0828812993212
305494,Capela de Santana,Capela de Santana,-29.6920020117994,-51.3180541352451
303777,Capela do Alto,Capela do Alto,-23.4689471627818,-47.7392403274983
301423,Capela do Alto Alegre,Capela do Alto Alegre,-11.6662390382791,-39.8352398321049
302856,Capela Nova,Capela Nova,-20.9183836205754,-43.6223320604298
302662,Capelinha,Capelinha,-17.6892590300744,-42.5150611385295
303945,Capetinga,Capetinga,-20.6167829099413,-47.0575347760329
300446,Capim,Capim,-6.92020153643316,-35.166920218356
304399,Capim Branco,Capim Branco,-19.5475384073513,-44.1307223542263
301445,Capim Grosso,Capim Grosso,-11.3800993074141,-40.0092797350909
303396,Capinópolis,Capinópolis,-18.6866778272089,-49.5710231685302
305577,Capinzal,Capinzal,-27.3477692901181,-51.6061472139703
302430,Capinzal do Norte,Capinzal do Norte,-4.72400251249896,-44.3283975600918
300907,Capistrano,Capistrano,-4.45608842258338,-38.9051575334653
314257,Capitán Bado,Capitán Bado,-23.2632911594442,-55.5481058219075
314321,Capitán Meza,Capitán Meza,-26.9397949210814,-55.1976795539068
314358,Capitán Miranda,Capitán Miranda,-27.2176073553147,-55.7958571928511
305220,Capitão,Capitão,-29.2678624209062,-51.9857357381002
302538,Capitão Andrade,Capitão Andrade,-19.0753090455596,-41.8617683474674
300892,Capitão de Campos,Capitão de Campos,-4.45739920464923,-41.9443359313237
302155,Capitão Enéas,Capitão Enéas,-16.3269990868233,-43.708804819723
301437,Capitão Gervásio Oliveira,Capitão Gervásio Oliveira,-8.49626925575091,-41.8166647159533
305325,Capitão Leônidas Marques,Capitão Leônidas Marques,-25.482109388029,-53.6116884333872
301891,Capitão Poço,Capitão Poço,-1.74822820158799,-47.0632989176405
303249,Capitólio,Capitólio,-20.6168441869078,-46.0496440385977
303911,Capivari,Capivari,-22.9956193716998,-47.5075533529056
304070,Capivari de Baixo,Capivari de Baixo,-28.4502578844964,-48.9635762387425
305465,Capivari do Sul,Capivari do Sul,-30.1449791324616,-50.5149431766721
305859,Capixaba,Capixaba,-10.5749023142779,-67.6767588249848
301127,Capoeiras,Capoeiras,-8.74059810191159,-36.6279516262493
303573,Caputira,Caputira,-20.1708196370138,-42.2686796772926
305656,Caraá,Caraá,-29.7899075413656,-50.4350151254963
305890,Caracaraí,Caracaraí,1.81985298208561,-61.1281615249003
295800,Caracas,Caracas,10.4993438897965,-66.9209508874676
302059,Caracol,Caracol,-9.27975858692185,-43.3293473630512
305241,Caracol,Caracol,-22.0114643899255,-57.0281298513313
303286,Caraguatatuba,Caraguatatuba,-23.6130175547538,-45.4129238943836
302484,Caraí,Caraí,-17.186627298591,-41.7007084251072
301619,Caraíbas,Caraíbas,-14.7254604947669,-41.2557274822245
303976,Carambeí,Carambeí,-24.9482917638682,-50.1102022166939
302858,Caranaíba,Caranaíba,-20.8711401869163,-43.7420877861694
302936,Carandaí,Carandaí,-20.9570813504895,-43.811374484681
302912,Carangola,Carangola,-20.7348283183569,-42.0317072875883
302646,Carapebus,Carapebus,-22.1825985646733,-41.6633701647792
314503,Carapeguá,Carapeguá,-25.765022498034,-57.2157522968551
303736,Carapicuíba,Carapicuíba,-23.5239496490843,-46.8410764487539
302898,Caratinga,Caratinga,-19.7872814033145,-42.1295748143056
304269,Carauari,Carauari,-4.88230485096186,-66.9095272442769
300556,Caraúbas,Caraúbas,-5.78427652477244,-37.5589355556992
300597,Caraúbas,Caraúbas,-7.72829998129053,-36.493452810112
300724,Caraúbas do Piauí,Caraúbas do Piauí,-3.47564209170563,-41.8428524958681
302414,Caravelas,Caravelas,-17.7273119041745,-39.2600117854887
314339,Carayaó,Carayaó,-25.1995962245834,-56.3927655259905
314422,Caraz,Caraz,-9.03470092394474,-77.8015767999736
305379,Carazinho,Carazinho,-28.2963161078345,-52.7937166489873
302702,Carbonita,Carbonita,-17.5259574346082,-43.0140473063019
301367,Cardeal da Silva,Cardeal da Silva,-11.9418366994149,-37.9487226396114
303436,Cardoso,Cardoso,-20.0819933296865,-49.9139485519214
302639,Cardoso Moreira,Cardoso Moreira,-21.4850790627449,-41.6168540835127
303465,Careaçu,Careaçu,-22.0428558321793,-45.6963993834094
304637,Careiro,Careiro,-3.76841321037179,-60.3694874027639
304633,Careiro da Várzea,Careiro da Várzea,-3.19736350368078,-59.7968286862142
314424,Carhuaz,Carhuaz,-9.27415834550466,-77.6386517987929
302515,Cariacica,Cariacica,-20.2636837308909,-40.4168954481998
300912,Caridade,Caridade,-4.22553983141803,-39.1914834587093
301061,Caridade do Piauí,Caridade do Piauí,-7.73476808041013,-40.9850950461201
302113,Carinhanha,Carinhanha,-14.2989739383974,-43.7727077841903
301229,Carira,Carira,-10.3570089181399,-37.7031597338685
301336,Cariré,Cariré,-3.95090817053309,-40.4758866108452
302294,Cariri do Tocantins,Cariri do Tocantins,-11.8885123439139,-49.1612658161412
301175,Caririaçu,Caririaçu,-7.03438642962866,-39.2825317761419
301179,Cariús,Cariús,-6.53333775705282,-39.496577986603
304552,Carlinda,Carlinda,-9.94953256536922,-55.8420960138158
304203,Carlópolis,Carlópolis,-23.4249884132586,-49.7209476402834
305188,Carlos Barbosa,Carlos Barbosa,-29.2974271091094,-51.5032997427122
303597,Carlos Chagas,Carlos Chagas,-17.6978051676562,-40.7726197544633
305669,Carlos Gomes,Carlos Gomes,-27.717152998292,-51.9125756607142
314363,Carmen del Paraná,Carmen del Paraná,-27.233308354292,-56.1003410156537
304895,Carmésia,Carmésia,-19.0881896118362,-43.1386114169313
304407,Carmo,Carmo,-21.9314405575189,-42.6050023601191
303214,Carmo da Cachoeira,Carmo da Cachoeira,-21.4637669913209,-45.2204485677922
302998,Carmo da Mata,Carmo da Mata,-20.5580055811131,-44.8738788822774
304422,Carmo de Minas,Carmo de Minas,-22.1208444278558,-45.1310747021045
302991,Carmo do Cajuru,Carmo do Cajuru,-20.1916424821373,-44.7668072533975
303309,Carmo do Paranaíba,Carmo do Paranaíba,-18.9978969811051,-46.3133958947963
303231,Carmo do Rio Claro,Carmo do Rio Claro,-20.9740812684863,-46.115313394444
304884,Carmo do Rio Verde,Carmo do Rio Verde,-15.3553586012578,-49.7083739031789
302024,Carmolândia,Carmolândia,-7.03302537101616,-48.3981887653573
301233,Carmópolis,Carmópolis,-10.648978694797,-36.9842185192729
302997,Carmópolis de Minas,Carmópolis de Minas,-20.5400360395716,-44.6339351842643
300814,Carnaíba,Carnaíba,-7.80481408059009,-37.7956947303865
300644,Carnaúba dos Dantas,Carnaúba dos Dantas,-6.5571929770973,-36.5911829717215
300540,Carnaubais,Carnaubais,-5.33857724972584,-36.8345626405128
300718,Carnaubal,Carnaubal,-4.16024369463427,-40.9416336101308
300859,Carnaubeira da Penha,Carnaubeira da Penha,-8.31974206940637,-38.7438064659285
304354,Carneirinho,Carneirinho,-19.6991586008444,-50.6898556018085
301217,Carneiros,Carneiros,-9.48371003974107,-37.3759105841671
305882,Caroebe,Caroebe,0.876653894763983,-59.6968497286254
302003,Carolina,Carolina,-7.33625068044191,-47.4637962653532
300484,Carpina,Carpina,-7.84813003433303,-35.2566124769428
303165,Carrancas,Carrancas,-21.4902423965539,-44.6449496574389
300800,Carrapateira,Carrapateira,-7.03808904753608,-38.3460048947026
301982,Carrasco Bonito,Carrasco Bonito,-5.31815992308762,-48.0363283290874
300590,Caruaru,Caruaru,-8.28497318403908,-35.9701595565373
302394,Carutapera,Carutapera,-1.20128725060294,-46.0188261989396
304417,Carvalhópolis,Carvalhópolis,-21.774009596026,-45.8425156534816
303159,Carvalhos,Carvalhos,-22.0004825787526,-44.4635437336652
303529,Casa Branca,Casa Branca,-21.7712826339556,-47.0856420343124
302937,Casa Grande,Casa Grande,-20.7929974820185,-43.9346789441534
301435,Casa Nova,Casa Nova,-9.17429443462309,-40.9736589238602
305206,Casca,Casca,-28.5609912637967,-51.9819046343323
303306,Cascalho Rico,Cascalho Rico,-18.5772996247602,-47.8721654607664
302344,Cascavel,Cascavel,-4.13006459820542,-38.2414886856598
305068,Cascavel,Cascavel,-24.9577647972858,-53.4594525942231
302250,Caseara,Caseara,-9.27431514242246,-49.9558786248934
305662,Caseiros,Caseiros,-28.2586357147667,-51.6865574592363
303065,Casimiro de Abreu,Casimiro de Abreu,-22.4817214347715,-42.2069539042302
300662,Casinhas,Casinhas,-7.74513517961212,-35.7236897950052
300567,Casserengue,Casserengue,-6.77995485360128,-35.8181694129201
303327,Cássia,Cássia,-20.5835301092555,-46.9205147819977
303521,Cássia dos Coqueiros,Cássia dos Coqueiros,-21.2805528611981,-47.1647232286305
304449,Cassilândia,Cassilândia,-19.118320420022,-51.7317284382307
301912,Castanhal,Castanhal,-1.29834943031442,-47.9171160970736
304228,Castanheira,Castanheira,-11.1403846320669,-58.6081380058606
304296,Castanheiras,Castanheiras,-11.4257149340033,-61.9486842209849
303398,Castelândia,Castelândia,-18.0886546272446,-50.2136744862053
302552,Castelo,Castelo,-20.6037365165973,-41.2034859783311
301006,Castelo do Piauí,Castelo do Piauí,-5.31909748723309,-41.5501993295568
304454,Castilho,Castilho,-20.8693831714466,-51.48881662667
314366,Castillos,Castillos,-34.203751144112,-53.8628540741402
303975,Castro,Castro,-24.7895595024406,-50.0111925157844
301541,Castro Alves,Castro Alves,-12.7676175940966,-39.4266345886816
303258,Cataguases,Cataguases,-21.3928713984376,-42.6900126123682
303300,Catalão,Catalão,-18.1660914305318,-47.9444366674351
303823,Catanduva,Catanduva,-21.1318470752592,-48.9774226583098
305105,Catanduvas,Catanduvas,-27.0694455783936,-51.6606024558698
305640,Catanduvas,Catanduvas,-25.204821221017,-53.1552726570957
300880,Catarina,Catarina,-6.12332130836503,-39.8739672053598
303058,Catas Altas,Catas Altas,-20.0738779158103,-43.4064825199938
302844,Catas Altas da Noruega,Catas Altas da Noruega,-20.6905500547243,-43.4942456024029
301107,Catende,Catende,-8.67551478804567,-35.7026808711063
303825,Catiguá,Catiguá,-21.0523266262278,-49.0620279832231
300624,Catingueira,Catingueira,-7.12557945045355,-37.6064917558017
302088,Catolândia,Catolândia,-12.315810055933,-44.8631576022783
300609,Catolé do Rocha,Catolé do Rocha,-6.34103792371502,-37.7472752290142
301381,Catu,Catu,-12.3540550224052,-38.3754449433309
305448,Catuípe,Catuípe,-28.255823932611,-54.0136790238829
302485,Catuji,Catuji,-17.3022741071631,-41.5279884155765
300871,Catunda,Catunda,-4.64376102981993,-40.2003126982635
302605,Caturaí,Caturaí,-16.4471019048439,-49.4958610399642
302097,Caturama,Caturama,-13.3303281719571,-42.2917798264881
301320,Caturité,Caturité,-7.42002263264221,-36.0209024979901
302130,Catuti,Catuti,-15.3620300473671,-42.9630589960871
302351,Caucaia,Caucaia,-3.72836183407542,-38.6622445291197
302300,Cavalcante,Cavalcante,-13.792085192167,-47.4570023692256
303178,Caxambu,Caxambu,-21.9757314050388,-44.9322379326461
305300,Caxambu do Sul,Caxambu do Sul,-27.1628708572966,-52.8811704920328
301803,Caxias,Caxias,-4.86545383230969,-43.3620952768881
305574,Caxias do Sul,Caxias do Sul,-29.1633839765142,-51.1796110403997
300725,Caxingó,Caxingó,-3.42084452535797,-41.8925090488878
295798,Cayenne,Cayenne,4.92931474569963,-52.3308025771504
302311,Ceará-Mirim,Ceará-Mirim,-5.64047070951353,-35.4200318378386
314305,Cebollatí,Cebollatí,-33.2707766719113,-53.7995953573199
301663,Cedral,Cedral,-2.0006522361724,-44.5284668829919
303706,Cedral,Cedral,-20.902991940173,-49.2679492507254
300831,Cedro,Cedro,-6.60075571797593,-39.0611867777274
300843,Cedro,Cedro,-7.71221028157493,-39.2370527949777
302364,Cedro de São João,Cedro de São João,-10.2517322227526,-36.8811661857239
303009,Cedro do Abaeté,Cedro do Abaeté,-19.1485449142221,-45.7123010579116
305139,Celso Ramos,Celso Ramos,-27.633183701528,-51.3354476262114
302594,Centenário,Centenário,-8.96161479075746,-47.3380338067238
305670,Centenário,Centenário,-27.7620208001829,-51.9988573931927
304696,Centenário do Sul,Centenário do Sul,-22.8192281643608,-51.597697069143
302265,Central,Central,-11.1380126515437,-42.1119681193548
302872,Central de Minas,Central de Minas,-18.7616687771575,-41.3146807665287
301685,Central do Maranhão,Central do Maranhão,-2.19869637168401,-44.8257398506753
303372,Centralina,Centralina,-18.585674277323,-49.2017996175081
301721,Centro do Guilherme,Centro do Guilherme,-2.45053956269106,-46.0386626554568
301719,Centro Novo do Maranhão,Centro Novo do Maranhão,-2.14095258698166,-46.1233364694853
304312,Cerejeiras,Cerejeiras,-13.1874045542947,-60.817290574047
304883,Ceres,Ceres,-15.3065536075826,-49.6004041497533
303850,Cerqueira César,Cerqueira César,-23.0359887953673,-49.1659486403065
303773,Cerquilho,Cerquilho,-23.1669622666309,-47.746267457454
305814,Cerrito,Cerrito,-31.8423940616272,-52.8009152771716
304958,Cerro Azul,Cerro Azul,-24.82398622924,-49.2609477803677
305557,Cerro Branco,Cerro Branco,-29.6574597163803,-52.9410736005367
300525,Cerro Corá,Cerro Corá,-6.03544178445678,-36.3505759023312
314413,Cerro de Pasco,Cerro de Pasco,-10.6754256036365,-76.2545659030197
305674,Cerro Grande,Cerro Grande,-27.6110907134794,-53.1676890970902
305521,Cerro Grande do Sul,Cerro Grande do Sul,-30.5953466425867,-51.7486919388116
305729,Cerro Largo,Cerro Largo,-28.146716285068,-54.7432589616858
305140,Cerro Negro,Cerro Negro,-27.7946825099835,-50.8677062521001
303776,Cesário Lange,Cesário Lange,-23.2265099016156,-47.9548600239959
305013,Céu Azul,Céu Azul,-25.149339027655,-53.84192358049
303378,Cezarina,Cezarina,-16.972279448094,-49.7762165772124
300497,Chã de Alegria,Chã de Alegria,-8.00722001204958,-35.2042926611965
301353,Chã Grande,Chã Grande,-8.23869727508263,-35.457440715705
301132,Chã Preta,Chã Preta,-9.25603683251092,-36.2986337605154
303104,Chácara,Chácara,-21.6737372654248,-43.2153600724616
314393,Chacas,Chacas,-9.15338161438023,-77.3744290690263
314508,Chachapoyas,Chachapoyas,-6.21822612513562,-77.8428855941747
302668,Chalé,Chalé,-20.0458063152207,-41.6900692370084
305688,Chapada,Chapada,-28.0563357978172,-53.0669763364662
302224,Chapada da Natividade,Chapada da Natividade,-11.6179390500894,-47.7489947225414
302246,Chapada de Areia,Chapada de Areia,-10.1378509237992,-49.148060256072
302658,Chapada do Norte,Chapada do Norte,-17.0885834092251,-42.5395421496558
304646,Chapada dos Guimarães,Chapada dos Guimarães,-15.4647766501201,-55.7502907963883
302198,Chapada Gaúcha,Chapada Gaúcha,-15.2981305199996,-45.6241874676978
304790,Chapadão do Céu,Chapadão do Céu,-18.3945731477962,-52.6648461727825
304088,Chapadão do Lageado,Chapadão do Lageado,-27.5909882480522,-49.5543117845117
304456,Chapadão do Sul,Chapadão do Sul,-18.7884853837168,-52.6267609108041
301657,Chapadinha,Chapadinha,-3.73914813476346,-43.3541937163035
305292,Chapecó,Chapecó,-27.1009185979791,-52.6156405930923
303917,Charqueada,Charqueada,-22.5100532375419,-47.7758717116311
305777,Charqueadas,Charqueadas,-29.9629567398143,-51.6293285537783
305161,Charrua,Charrua,-27.9497420846808,-52.0154552735025
300712,Chaval,Chaval,-3.03609853658894,-41.2437912755615
304427,Chavantes,Chavantes,-23.0371017768138,-49.710033891625
301939,Chaves,Chaves,-0.164525729464202,-49.9873923971511
303107,Chiador,Chiador,-22.0000547799616,-43.0620408175563
305432,Chiapetta,Chiapetta,-27.9234846560199,-53.942333162785
314405,Chiquian,Chiquian,-10.1407337478054,-77.155529066021
305631,Chopinzinho,Chopinzinho,-25.8520144833135,-52.517738149365
300849,Choró,Choró,-4.83946475206339,-39.1347143262581
300737,Chorozinho,Chorozinho,-4.30018310109639,-38.5006117097033
301296,Chorrochó,Chorrochó,-8.96992576285654,-39.0982618317099
305831,Chuí,Chuí,-33.6871063545789,-53.4598564809577
304286,Chupinguaia,Chupinguaia,-12.5532633333702,-60.902577388177
305839,Chuvisca,Chuvisca,-30.7508886844305,-51.9741214919956
314360,Chuy,Chuy,-33.7048623389317,-53.4675066312666
305031,Cianorte,Cianorte,-23.6603224409017,-52.605881942162
301311,Cícero Dantas,Cícero Dantas,-10.5951917279183,-38.3829364894757
304874,Cidade Gaúcha,Cidade Gaúcha,-23.3776478294496,-52.9440140445794
302776,Cidade Ocidental,Cidade Ocidental,-16.0791546431885,-47.9339216423311
301963,Cidelândia,Cidelândia,-5.17723327202119,-47.7837789557104
304142,Cidreira,Cidreira,-30.1701761985955,-50.2150872167105
301362,Cipó,Cipó,-11.1036124158448,-38.5182597593816
302846,Cipotânea,Cipotânea,-20.9030761253557,-43.3632731957653
305177,Ciríaco,Ciríaco,-28.3423882425298,-51.8745940179382
314311,Ciudad del Este,Ciudad del Este,-25.5318263554031,-54.6226416259333
303333,Claraval,Claraval,-20.3974786718495,-47.2772226664342
302938,Claro dos Poções,Claro dos Poções,-17.0799964096396,-44.2089580403986
304555,Cláudia,Cláudia,-11.5069908082151,-54.8777168504439
302992,Cláudio,Cláudio,-20.4441454009163,-44.7677098720555
304463,Clementina,Clementina,-21.5599913489902,-50.4489472434539
305112,Clevelândia,Clevelândia,-26.4047581051647,-52.3512402141274
314384,Clorinda,Clorinda,-25.2912001388585,-57.7246312228124
314365,Cnel. Bogado,Cnel. Bogado,-27.1896970197607,-56.181033295115
314341,Cnel. Oviedo,Cnel. Oviedo,-25.440935510546,-56.4294996558584
301743,Coaraci,Coaraci,-14.6374537287343,-39.5559387904353
304251,Coari,Coari,-4.09450726341776,-63.1445449066207
314520,Cobija,Cobija,-11.0241591037078,-68.7641578672701
300722,Cocal,Cocal,-3.47318517877535,-41.5549565403877
301770,Cocal de Telha,Cocal de Telha,-4.55460545565445,-41.9683259260629
304106,Cocal do Sul,Cocal do Sul,-28.5990530003232,-49.3339713602074
300721,Cocal dos Alves,Cocal dos Alves,-3.6208651409403,-41.4405298139773
304197,Cocalinho,Cocalinho,-14.3910064312838,-51.004924271289
302397,Cocalzinho de Goiás,Cocalzinho de Goiás,-15.7763721677066,-48.7690562702512
302166,Cocos,Cocos,-14.1818082492686,-44.5355837292683
304244,Codajás,Codajás,-3.83695987265238,-62.0592298293972
302564,Codó,Codó,-4.45602116338849,-43.8927035768633
301801,Coelho Neto,Coelho Neto,-4.25285136440194,-43.0111236527975
302757,Coimbra,Coimbra,-20.8539841485127,-42.8011720870095
301165,Coité do Nóia,Coité do Nóia,-9.6339178422766,-36.584795200969
301776,Coivaras,Coivaras,-5.09264477890945,-42.2082896752136
301924,Colares,Colares,-0.932810222369362,-48.280779369685
302504,Colatina,Colatina,-19.5497943797518,-40.6272444363268
304557,Colíder,Colíder,-10.8138713123985,-55.4614051782165
303628,Colina,Colina,-20.7119087973356,-48.5390737093344
302451,Colinas,Colinas,-6.0321594121378,-44.2473474450799
305773,Colinas,Colinas,-29.3955689706213,-51.8539489991557
302302,Colinas do Sul,Colinas do Sul,-14.1532585863431,-48.0763746330994
302031,Colinas do Tocantins,Colinas do Tocantins,-8.05805441076438,-48.4761091348924
302233,Colméia,Colméia,-8.73168667111566,-48.756154847912
300378,Colniza,Colniza,-9.46161508136963,-59.225630669586
303411,Colômbia,Colômbia,-20.1772347304612,-48.686871264128
303989,Colombo,Colombo,-25.2929639795602,-49.2265821314263
301855,Colônia do Gurguéia,Colônia do Gurguéia,-8.18411627741629,-43.7943504379749
301821,Colônia do Piauí,Colônia do Piauí,-7.2269272618159,-42.1758948108823
301469,Colônia Leopoldina,Colônia Leopoldina,-8.91848825961273,-35.7217092049228
304710,Colorado,Colorado,-22.8378851935206,-51.9747324384887
305541,Colorado,Colorado,-28.5263138118926,-52.9932788885624
304310,Colorado do Oeste,Colorado do Oeste,-13.1178488424931,-60.5458811885513
302690,Coluna,Coluna,-18.23399426994,-42.8399616401198
314442,Com. Reserva,Com. Reserva,-10.4363646787075,-66.277597931612
314320,Comandante Fontana,Comandante Fontana,-25.3322798714326,-59.6734156751483
303045,Combinado,Combinado,-12.8122147377324,-46.5485346254686
303409,Comendador Gomes,Comendador Gomes,-19.6979936538409,-49.0809499240724
303133,Comendador Levy Gasparian,Comendador Levy Gasparian,-22.0409080098362,-43.214388856184
302263,Comercinho,Comercinho,-16.2967201710069,-41.7948844706477
304313,Comodoro,Comodoro,-13.661856718755,-59.7852016212467
300853,Conceição,Conceição,-7.55634015813546,-38.5101217050732
303495,Conceição da Aparecida,Conceição da Aparecida,-21.0964964789463,-46.2052993194961
302419,Conceição da Barra,Conceição da Barra,-18.5887819244207,-39.7365369364885
304995,Conceição da Barra de Minas,Conceição da Barra de Minas,-21.1320345205819,-44.4732785463267
301415,Conceição da Feira,Conceição da Feira,-12.5082825091778,-38.9981458546188
303405,Conceição das Alagoas,Conceição das Alagoas,-19.9176185640624,-48.3843406606831
303444,Conceição das Pedras,Conceição das Pedras,-22.1581247822042,-45.456625051318
302667,Conceição de Ipanema,Conceição de Ipanema,-19.9330618624179,-41.6911109918409
302647,Conceição de Macabu,Conceição de Macabu,-22.0838557400321,-41.8722394391182
301532,Conceição do Almeida,Conceição do Almeida,-12.7840279773524,-39.1717905839842
302036,Conceição do Araguaia,Conceição do Araguaia,-8.26177064880747,-49.2692991335154
301073,Conceição do Canindé,Conceição do Canindé,-7.87679741140338,-41.5945293528625
302548,Conceição do Castelo,Conceição do Castelo,-20.3643774879655,-41.2420827120208
301410,Conceição do Coité,Conceição do Coité,-11.5603950935685,-39.2811507558099
301388,Conceição do Jacuípe,Conceição do Jacuípe,-12.3272778151451,-38.7687539752622
301710,Conceição do Lago-Açu,Conceição do Lago-Açu,-3.83792091767463,-44.8969613365361
304900,Conceição do Mato Dentro,Conceição do Mato Dentro,-19.0348808393523,-43.4224472858308
302974,Conceição do Pará,Conceição do Pará,-19.7476353945443,-44.897238598056
303179,Conceição do Rio Verde,Conceição do Rio Verde,-21.8783137131379,-45.0874137467182
302223,Conceição do Tocantins,Conceição do Tocantins,-12.2236591746562,-47.2952301294791
303470,Conceição dos Ouros,Conceição dos Ouros,-22.4083227798083,-45.7999891021574
314483,Concepcion,Concepcion,-11.9089092514426,-75.31346880317
314277,Concepción,Concepción,-23.4004289061267,-57.4301966684476
314295,Concepción,Concepción,-28.381720583574,-57.8902901686512
303642,Conchal,Conchal,-22.3379862076199,-47.1733262062377
303926,Conchas,Conchas,-23.0159041366756,-48.0137977796175
305119,Concórdia,Concórdia,-27.2339337322226,-52.0264094278525
314314,Concórdia,Concórdia,-31.3812996781924,-58.0232287326276
301918,Concórdia do Pará,Concórdia do Pará,-1.99275742969051,-47.9425783819723
300622,Condado,Condado,-6.89872848172517,-37.6063435574146
300681,Condado,Condado,-7.58829044467963,-35.1002295957067
300418,Conde,Conde,-7.25788447306674,-34.9001638851799
301268,Conde,Conde,-11.8183823547936,-37.6134059661552
302115,Condeúba,Condeúba,-14.9026824678133,-41.9721763656337
305427,Condor,Condor,-28.2080026248344,-53.4910056104344
302173,Cônego Marinho,Cônego Marinho,-15.2987033103474,-44.4128839171774
302823,Confins,Confins,-19.6286549996982,-43.993518589262
304190,Confresa,Confresa,-10.6441178076745,-51.5702754105664
300599,Congo,Congo,-7.79120464002003,-36.6583602643279
303473,Congonhal,Congonhal,-22.1492293533758,-46.0434220470035
302930,Congonhas,Congonhas,-20.496319567746,-43.8513836394553
302724,Congonhas do Norte,Congonhas do Norte,-18.8025224150527,-43.6770865522543
304722,Congonhinhas,Congonhinhas,-23.5509885148143,-50.5539463213307
303335,Conquista,Conquista,-19.9367415927678,-47.5448753987314
300379,Conquista d'Oeste,Conquista d'Oeste,-14.541279889911,-59.5412675556046
302931,Conselheiro Lafaiete,Conselheiro Lafaiete,-20.663921331099,-43.7849805803288
303966,Conselheiro Mairinck,Conselheiro Mairinck,-23.6268521149993,-50.171225694563
302537,Conselheiro Pena,Conselheiro Pena,-19.1793892192623,-41.4739057861698
303277,Consolação,Consolação,-22.5497679306514,-45.9258503615864
305672,Constantina,Constantina,-27.7324444919327,-52.99425452563
304402,Contagem,Contagem,-19.9325518657098,-44.054292070656
314467,Contamana,Contamana,-7.34077047745703,-75.0130613385491
304036,Contenda,Contenda,-25.679288023179,-49.5354695164776
301583,Contendas do Sincorá,Contendas do Sincorá,-13.7627801121499,-41.0429866567068
303215,Coqueiral,Coqueiral,-21.1862315411129,-45.436952331487
300390,Coqueiro Baixo,Coqueiro Baixo,-29.1810908634236,-52.0950611446414
301146,Coqueiro Seco,Coqueiro Seco,-9.6375815453575,-35.7996733874897
305378,Coqueiros do Sul,Coqueiros do Sul,-28.1198928434228,-52.7846768427144
302189,Coração de Jesus,Coração de Jesus,-16.6845264691566,-44.363883952091
301386,Coração de Maria,Coração de Maria,-12.2492610337679,-38.7477073987121
305067,Corbélia,Corbélia,-24.7975859392509,-53.3010220658202
303063,Cordeiro,Cordeiro,-22.0272104393472,-42.3651988745037
304579,Cordeirópolis,Cordeirópolis,-22.4782519492141,-47.4522874701918
301628,Cordeiros,Cordeiros,-15.0391639456657,-41.9318358262557
305289,Cordilheira Alta,Cordilheira Alta,-26.9848734135684,-52.606032070141
303060,Cordisburgo,Cordisburgo,-19.1228623841743,-44.3227867190045
304415,Cordislândia,Cordislândia,-21.7895749819253,-45.7002667237222
301334,Coreaú,Coreaú,-3.55215118150645,-40.6536029410447
300981,Coremas,Coremas,-7.00754093907635,-37.9349479986561
305594,Corguinho,Corguinho,-19.8301340916562,-54.8316157116822
302163,Coribe,Coribe,-13.8280933910082,-44.456937838086
302953,Corinto,Corinto,-18.3694331767175,-44.4545519753452
304723,Cornélio Procópio,Cornélio Procópio,-23.1833786596237,-50.6501943176097
302680,Coroaci,Coroaci,-18.6160413536014,-42.2794553543136
303876,Coroados,Coroados,-21.3525455395327,-50.2863535644622
301701,Coroatá,Coroatá,-4.13481816755917,-44.1247649515002
304943,Coromandel,Coromandel,-18.4738250898906,-47.1937375016067
305647,Coronel Barros,Coronel Barros,-28.3829831386108,-54.0659386401333
305416,Coronel Bicaco,Coronel Bicaco,-27.7222488732444,-53.7045952295137
305110,Coronel Domingos Soares,Coronel Domingos Soares,-26.2281547292045,-52.0360935712701
300636,Coronel Ezequiel,Coronel Ezequiel,-6.38587969598688,-36.2174836856359
303556,Coronel Fabriciano,Coronel Fabriciano,-19.5183533372313,-42.6279457637878
305293,Coronel Freitas,Coronel Freitas,-26.9061829620774,-52.7015723514898
300901,Coronel João Pessoa,Coronel João Pessoa,-6.25014794305115,-38.444463175716
301287,Coronel João Sá,Coronel João Sá,-10.2843129778603,-37.9254169296483
302047,Coronel José Dias,Coronel José Dias,-8.82551865193138,-42.477963079769
304204,Coronel Macedo,Coronel Macedo,-23.6309879782304,-49.3139481842366
305276,Coronel Martins,Coronel Martins,-26.5115123154783,-52.6698096051318
302147,Coronel Murta,Coronel Murta,-16.6153099465407,-42.1843037811547
303103,Coronel Pacheco,Coronel Pacheco,-21.590232195801,-43.2563587845936
300387,Coronel Pilar,Coronel Pilar,-29.2699534139159,-51.6851851213109
305239,Coronel Sapucaia,Coronel Sapucaia,-23.2728612364113,-55.5282647423638
305633,Coronel Vivida,Coronel Vivida,-25.9771545925466,-52.5644999084614
304989,Coronel Xavier Chaves,Coronel Xavier Chaves,-21.0282007087189,-44.2209755278951
314421,Corongo,Corongo,-8.57366340248245,-77.9037633855343
314290,Corpus Christi Nuevo,Corpus Christi Nuevo,-24.0291117948918,-54.8380154067596
303017,Córrego D'anta,Córrego D'anta,-19.8246063631547,-45.9045245918606
303278,Córrego do Bom Jesus,Córrego do Bom Jesus,-22.6273599379513,-46.0245052564063
304975,Córrego do Ouro,Córrego do Ouro,-16.2954058449046,-50.5525319185635
300411,Córrego Fundo,Córrego Fundo,-20.4478931936268,-45.5621250228114
303053,Córrego Novo,Córrego Novo,-19.8365720572926,-42.3991758495439
305130,Correia Pinto,Correia Pinto,-27.5881667095606,-50.3618861176498
302079,Corrente,Corrente,-10.433778590997,-45.1637107226512
301131,Correntes,Correntes,-9.12160500256838,-36.3247348403196
302162,Correntina,Correntina,-13.3431503793384,-44.6348794233256
314328,Corrientes,Corrientes,-27.4779393070089,-58.8214211900906
301085,Cortês,Cortês,-8.47486167162659,-35.5470825593988
305603,Corumbá,Corumbá,-19.008166122908,-57.651488276272
302398,Corumbá de Goiás,Corumbá de Goiás,-15.928309974073,-48.8089682381018
303365,Corumbaíba,Corumbaíba,-18.1419958069483,-48.561951165859
